City,Country,Latitude,Longitude,Timezone
Moscow,Russia,55.7558,37.6176,Europe/Moscow
Sant Julià de Lòria,Europe,42.46372,1.49129,Europe/Andorra
Ordino,Europe,42.55623,1.53319,Europe/Andorra
les Escaldes,Europe,42.50729,1.53414,Europe/Andorra
la Massana,Europe,42.54499,1.51483,Europe/Andorra
Encamp,Europe,42.53474,1.58014,Europe/Andorra
Canillo,Europe,42.5676,1.59756,Europe/Andorra
Andorra la Vella,Europe,42.50779,1.52109,Europe/Andorra
Warīsān,Asia,25.16744,55.40708,Asia/Dubai
Umm Suqaym,Asia,25.15491,55.21015,Asia/Dubai
Umm Al Quwain City,Asia,25.56473,55.55517,Asia/Dubai
Ţarīf Kalbā,Asia,25.0695,56.33115,Asia/Dubai
Ar Rāshidīyah,Asia,25.22499,55.38947,Asia/Dubai
Ras Al Khaimah City,Asia,25.78953,55.9432,Asia/Dubai
Muzayri‘,Asia,23.14355,53.7881,Asia/Dubai
Maşfūţ,Asia,24.81089,56.10657,Asia/Dubai
Zayed City,Asia,23.65416,53.70522,Asia/Dubai
Khawr Fakkān,Asia,25.33132,56.34199,Asia/Dubai
Kalbā,Asia,25.0513,56.35422,Asia/Dubai
Jumayrā,Asia,25.20795,55.24969,Asia/Dubai
Al Jazīrah al Ḩamrā’,Asia,25.7091,55.80772,Asia/Dubai
Dubai,Asia,25.07725,55.30927,Asia/Dubai
Dibba Al-Fujairah,Asia,25.59246,56.26176,Asia/Dubai
Dibba Al-Hisn,Asia,25.61955,56.27291,Asia/Dubai
Dayrah,Asia,25.27143,55.30207,Asia/Dubai
Sharjah,Asia,25.33737,55.41206,Asia/Dubai
Ar Ruways,Asia,24.11028,52.73056,Asia/Dubai
Al Manāmah,Asia,25.3299,56.02188,Asia/Dubai
Ḩattā,Asia,24.80073,56.12726,Asia/Dubai
Al Fujairah City,Asia,25.11641,56.34141,Asia/Dubai
Al Ain City,Asia,24.19167,55.76056,Asia/Dubai
Ajman City,Asia,25.40177,55.47878,Asia/Dubai
Adh Dhayd,Asia,25.28812,55.88157,Asia/Dubai
Abu Dhabi,Asia,24.45118,54.39696,Asia/Dubai
Abū Hayl,Asia,25.28413,55.33153,Asia/Dubai
As Saţwah,Asia,25.22192,55.27459,Asia/Dubai
Nadd al Ḩumr,Asia,25.20131,55.38388,Asia/Dubai
Suwayḩān,Asia,24.46235,55.33715,Asia/Dubai
Al Ḩamīdīyah,Asia,25.40001,55.52925,Asia/Dubai
Al Waheda,Asia,25.29173,55.33822,Asia/Dubai
Al Twar First,Asia,25.27148,55.36165,Asia/Dubai
AL Twar Second,Asia,25.26309,55.38028,Asia/Dubai
Al Qusais Second,Asia,25.27148,55.38603,Asia/Dubai
Al Karama,Asia,25.24004,55.30106,Asia/Dubai
Al Hudaiba,Asia,25.24151,55.27805,Asia/Dubai
Knowledge Village,Asia,25.10223,55.16433,Asia/Dubai
The Palm Jumeirah,Asia,25.11607,55.13506,Asia/Dubai
Za'abeel,Asia,25.22536,55.305,Asia/Dubai
Oud Metha,Asia,25.23685,55.31419,Asia/Dubai
Bur Dubai,Asia,25.26038,55.29891,Asia/Dubai
Khalifah A City,Asia,24.42588,54.605,Asia/Dubai
Shakhbout City,Asia,24.36727,54.63721,Asia/Dubai
Mirdif,Asia,25.22443,55.41412,Asia/Dubai
Hawr al ‘Anz,Asia,25.27744,55.33675,Asia/Dubai
Mankhūl,Asia,25.24612,55.29222,Asia/Dubai
Būr Sa‘īd,Asia,25.261,55.33016,Asia/Dubai
Nāyf,Asia,25.27139,55.30323,Asia/Dubai
Al Murar al Qadīm,Asia,25.27576,55.30738,Asia/Dubai
Ar Riqqah,Asia,25.26797,55.31272,Asia/Dubai
Al Warqaa,Asia,25.19272,55.42013,Asia/Dubai
International City,Asia,25.16383,55.40987,Asia/Dubai
Dubai Marina,Asia,25.08525,55.14646,Asia/Dubai
Dubai Sports City,Asia,25.03878,55.21725,Asia/Dubai
Dubai Internet City,Asia,25.09538,55.16171,Asia/Dubai
Al Safa,Asia,25.17047,55.23336,Asia/Dubai
Ar Rumaylah,Asia,25.40338,55.4334,Asia/Dubai
Mushayrif,Asia,25.40977,55.47106,Asia/Dubai
Al Jurf,Asia,25.41814,55.50791,Asia/Dubai
Al Majaz,Asia,25.32354,55.38774,Asia/Dubai
As Saţwah Sharq,Asia,25.23796,55.28678,Asia/Dubai
Dubai Festival City,Asia,25.22177,55.35733,Asia/Dubai
Dubai International Financial Centre,Asia,25.2106,55.27787,Asia/Dubai
Downtown Dubai,Asia,25.19408,55.2781,Asia/Dubai
Dubai Investments Park,Asia,25.00827,55.15682,Asia/Dubai
Jebel Ali,Asia,25.00255,55.10811,Asia/Dubai
Bani Yas City,Asia,24.30978,54.62944,Asia/Dubai
Musaffah,Asia,24.35893,54.48267,Asia/Dubai
Al Shamkhah City,Asia,24.39268,54.70779,Asia/Dubai
Reef Al Fujairah City,Asia,25.14479,56.24764,Asia/Dubai
Sha'biyyat Al Hiyar,Asia,24.58242,55.7467,Asia/Dubai
Umm Al Sheif,Asia,25.13227,55.20567,Asia/Dubai
Al Bada'a,Asia,25.22462,55.26888,Asia/Dubai
Al Muteena,Asia,25.27375,55.32265,Asia/Dubai
Al Mizhar First,Asia,25.24805,55.44128,Asia/Dubai
Al Mizhar Second,Asia,25.24332,55.4619,Asia/Dubai
Dubai Silicon Oasis,Asia,25.11985,55.38718,Asia/Dubai
Dubai Motor City,Asia,25.04593,55.24102,Asia/Dubai
DAMAC Hills,Asia,25.02924,55.25277,Asia/Dubai
Al Furjan,Asia,25.02651,55.14565,Asia/Dubai
Business Bay,Asia,25.18544,55.26969,Asia/Dubai
Al Qusais 1,Asia,25.27925,55.36995,Asia/Dubai
Al Twar 3,Asia,25.25159,55.39408,Asia/Dubai
Al Khabaisi,Asia,25.26628,55.33379,Asia/Dubai
Al Khawaneej 1,Asia,25.24882,55.48545,Asia/Dubai
Halwan,Asia,25.34586,55.42165,Asia/Dubai
Al Sajaah,Asia,25.31532,55.63211,Asia/Dubai
Lahbab,Asia,25.03763,55.59135,Asia/Dubai
Al Madam,Asia,24.97355,55.77781,Asia/Dubai
Mohammed Bin Zayed City,Asia,24.34794,54.55368,Asia/Dubai
Masdar City,Asia,24.43208,54.61582,Asia/Dubai
Kuhsān,Asia,34.65389,61.19778,Asia/Kabul
Tukzār,Asia,35.94831,66.42132,Asia/Kabul
Zindah Jān,Asia,34.34264,61.74675,Asia/Kabul
Zarghūn Shahr,Asia,32.84734,68.44573,Asia/Kabul
Zaṟah Sharan,Asia,33.14641,68.79213,Asia/Kabul
Zaranj,Asia,30.95962,61.86037,Asia/Kabul
Yangī Qal‘ah,Asia,37.46572,69.61131,Asia/Kabul
Bāzār-e Yakāwlang,Asia,34.73525,66.97379,Asia/Kabul
Tīr Pul,Asia,34.59431,61.26895,Asia/Kabul
Tarinkot,Asia,32.62998,65.87806,Asia/Kabul
Taloqan,Asia,36.73605,69.53451,Asia/Kabul
Tagāw-Bāy,Asia,35.69941,66.06164,Asia/Kabul
Tagāb,Asia,34.85501,69.64917,Asia/Kabul
Shīnḏanḏ,Asia,33.30294,62.1474,Asia/Kabul
Shibirghān,Asia,36.66757,65.7529,Asia/Kabul
Shahrak,Asia,34.10737,64.3052,Asia/Kabul
Sidqābād,Asia,35.02298,69.35112,Asia/Kabul
Sar-e Pul,Asia,36.21544,65.93249,Asia/Kabul
Sangīn,Asia,32.07275,64.8359,Asia/Kabul
Sang-e Chārak,Asia,35.84972,66.43694,Asia/Kabul
Aībak,Asia,36.26468,68.01551,Asia/Kabul
Rūdbār,Asia,30.15,62.6,Asia/Kabul
Rustāq,Asia,37.12604,69.83045,Asia/Kabul
Qarqīn,Asia,37.41853,66.04358,Asia/Kabul
Qarchī Gak,Asia,37.03999,66.78891,Asia/Kabul
Qarāwul,Asia,37.21959,68.7802,Asia/Kabul
Qarah Bāgh,Asia,34.94023,61.77589,Asia/Kabul
Qala i Naw,Asia,34.98735,63.12891,Asia/Kabul
Qal‘ah-ye Shahr,Asia,35.54729,65.5676,Asia/Kabul
Qalāt,Asia,32.10575,66.90833,Asia/Kabul
Pārūn,Asia,35.42064,70.92261,Asia/Kabul
Pul-e Khumrī,Asia,35.94458,68.71512,Asia/Kabul
Pul-e ‘Alam,Asia,33.99529,69.02274,Asia/Kabul
Panjāb,Asia,34.38795,67.02327,Asia/Kabul
Paghmān,Asia,34.58787,68.95091,Asia/Kabul
Uruzgān,Asia,32.92775,66.63253,Asia/Kabul
Nīlī,Asia,33.72178,66.13023,Asia/Kabul
Nahrīn,Asia,36.0649,69.13343,Asia/Kabul
Mīr Bachah Kōṯ,Asia,34.74999,69.11899,Asia/Kabul
Mīrābād,Asia,30.43624,61.8383,Asia/Kabul
Maymana,Asia,35.92139,64.78361,Asia/Kabul
Mehtar Lām,Asia,34.67139,70.20944,Asia/Kabul
Mazār-e Sharīf,Asia,36.70904,67.11087,Asia/Kabul
Lashkar Gāh,Asia,31.59382,64.37161,Asia/Kabul
Larkird,Asia,35.48936,66.66409,Asia/Kabul
Kushk,Asia,33.29565,61.95221,Asia/Kabul
Kunduz,Asia,36.72895,68.857,Asia/Kabul
Khōst,Asia,33.33951,69.92041,Asia/Kabul
Khulm,Asia,36.69736,67.69826,Asia/Kabul
Khāsh,Asia,31.52919,62.79055,Asia/Kabul
Khān Neshīn,Asia,30.5488,63.7888,Asia/Kabul
Khandūd,Asia,36.95127,72.318,Asia/Kabul
Khanabad,Asia,36.68304,69.11279,Asia/Kabul
Karukh,Asia,34.48108,62.5863,Asia/Kabul
Kandahār,Asia,31.61332,65.71013,Asia/Kabul
Kabul,Asia,34.52813,69.17233,Asia/Kabul
Jurm,Asia,36.86477,70.83421,Asia/Kabul
Jalālābād,Asia,34.42647,70.45153,Asia/Kabul
Jabal os Saraj,Asia,35.11833,69.23778,Asia/Kabul
Herāt,Asia,34.34817,62.19967,Asia/Kabul
Ghormach,Asia,35.73062,63.78264,Asia/Kabul
Ghazni,Asia,33.55391,68.42096,Asia/Kabul
Gereshk,Asia,31.82089,64.57005,Asia/Kabul
Gardez,Asia,33.59744,69.22592,Asia/Kabul
Fayzabad,Asia,37.11664,70.58002,Asia/Kabul
Farkhār,Asia,36.57288,69.85783,Asia/Kabul
Farah,Asia,32.37451,62.11638,Asia/Kabul
Eslam Qaleh,Asia,34.66667,61.06667,Asia/Kabul
Imām Şāḩib,Asia,37.18897,68.93644,Asia/Kabul
Dasht-e Archī,Asia,37.13333,69.16667,Asia/Kabul
Darzāb,Asia,35.97744,65.37828,Asia/Kabul
Markaz-e Ḩukūmat-e Darwēshān,Asia,31.13231,64.1934,Asia/Kabul
Chīras,Asia,35.41674,65.98234,Asia/Kabul
Charikar,Asia,35.01361,69.17139,Asia/Kabul
Chahār Burj,Asia,34.24475,62.19165,Asia/Kabul
Fayrōz Kōh,Asia,34.51952,65.25093,Asia/Kabul
Muhmand Dara,Asia,34.24749,70.87218,Asia/Kabul
Baraki Barak,Asia,33.96744,68.9492,Asia/Kabul
Bāmyān,Asia,34.82156,67.82734,Asia/Kabul
Balkh,Asia,36.75635,66.8972,Asia/Kabul
Baghlān,Asia,36.13068,68.70829,Asia/Kabul
Ḩukūmatī Azrah,Asia,34.17355,69.64573,Asia/Kabul
Ārt Khwājah,Asia,37.08571,69.47958,Asia/Kabul
Āsmār,Asia,35.03333,71.35809,Asia/Kabul
Ashkāsham,Asia,36.68333,71.53333,Asia/Kabul
Asadābād,Asia,34.87311,71.14697,Asia/Kabul
Andkhōy,Asia,36.95293,65.12376,Asia/Kabul
Anār Darah,Asia,32.7587,61.65397,Asia/Kabul
‘Alāqahdārī Dīshū,Asia,30.43206,63.29802,Asia/Kabul
Bāzārak,Asia,35.31292,69.51519,Asia/Kabul
Maydanshakhr,Asia,34.39561,68.86618,Asia/Kabul
Markaz-e Woluswalī-ye Āchīn,Asia,34.12583,70.70778,Asia/Kabul
Sharan,Asia,33.17568,68.73045,Asia/Kabul
Saint John’s,America,17.12096,-61.84329,America/Antigua
Piggotts,America,17.11667,-61.8,America/Antigua
Parham,America,17.09682,-61.77046,America/Antigua
Falmouth,America,17.02741,-61.78136,America/Antigua
Codrington,America,17.6394,-61.82437,America/Antigua
Bolands,America,17.06565,-61.87466,America/Antigua
West End Village,America,18.17191,-63.14941,America/Anguilla
The Valley,America,18.21704,-63.05783,America/Anguilla
The Quarter,America,18.20799,-63.04178,America/Anguilla
Farrington,America,18.215,-63.02238,America/Anguilla
Stoney Ground,America,18.22026,-63.04607,America/Anguilla
South Hill Village,America,18.19201,-63.08779,America/Anguilla
Sandy Ground Village,America,18.20118,-63.08998,America/Anguilla
North Side,America,18.22919,-63.04401,America/Anguilla
North Hill Village,America,18.20542,-63.07847,America/Anguilla
Island Harbour,America,18.25601,-63.0102,America/Anguilla
George Hill,America,18.19939,-63.0665,America/Anguilla
East End Village,America,18.23333,-63,America/Anguilla
Blowing Point Village,America,18.17648,-63.09375,America/Anguilla
Sandy Hill,America,18.22104,-63.01329,America/Anguilla
Sarandë,Europe,39.87534,20.00477,Europe/Tirane
Tepelenë,Europe,40.29583,20.01917,Europe/Tirane
Shupenzë,Europe,41.53,20.42361,Europe/Tirane
Rajcë,Europe,41.09028,20.57639,Europe/Tirane
Përrenjas,Europe,41.07306,20.54889,Europe/Tirane
Pogradec,Europe,40.9025,20.6525,Europe/Tirane
Peshkopi,Europe,41.685,20.42889,Europe/Tirane
Përmet,Europe,40.23361,20.35167,Europe/Tirane
Kukës,Europe,42.07694,20.42194,Europe/Tirane
Krumë,Europe,42.19694,20.41333,Europe/Tirane
Korçë,Europe,40.61861,20.78083,Europe/Tirane
Klos,Europe,41.50694,20.08667,Europe/Tirane
Hotolisht,Europe,41.15667,20.39722,Europe/Tirane
Gramsh,Europe,40.86972,20.18444,Europe/Tirane
Gjirokastër,Europe,40.07583,20.13889,Europe/Tirane
Ersekë,Europe,40.33778,20.67889,Europe/Tirane
Elbasan,Europe,41.1125,20.08222,Europe/Tirane
Burrel,Europe,41.61028,20.00889,Europe/Tirane
Bulqizë,Europe,41.49167,20.22194,Europe/Tirane
Bilisht,Europe,40.6275,20.99,Europe/Tirane
Librazhd-Qendër,Europe,41.19694,20.33556,Europe/Tirane
Zharrëz,Europe,40.70917,19.64972,Europe/Tirane
Zall-Herr,Europe,41.38944,19.8275,Europe/Tirane
Xhafzotaj,Europe,41.34444,19.5475,Europe/Tirane
Vlorë,Europe,40.4686,19.48318,Europe/Tirane
Velabisht,Europe,40.70167,19.93222,Europe/Tirane
Ura Vajgurore,Europe,40.76889,19.87778,Europe/Tirane
Tirana,Europe,41.3275,19.81889,Europe/Tirane
Shkodër,Europe,42.06828,19.51258,Europe/Tirane
Shijak,Europe,41.34556,19.56722,Europe/Tirane
Selenicë,Europe,40.53056,19.63583,Europe/Tirane
Rrogozhinë,Europe,41.07639,19.66528,Europe/Tirane
Rrëshen,Europe,41.7675,19.87556,Europe/Tirane
Roskovec,Europe,40.7375,19.70222,Europe/Tirane
Pukë,Europe,42.04444,19.89972,Europe/Tirane
Poshnjë,Europe,40.78028,19.84417,Europe/Tirane
Petrelë,Europe,41.25306,19.85306,Europe/Tirane
Perondi,Europe,40.77889,19.92306,Europe/Tirane
Peqin,Europe,41.04611,19.75111,Europe/Tirane
Patos Fshat,Europe,40.64278,19.65083,Europe/Tirane
Patos,Europe,40.68333,19.61944,Europe/Tirane
Papër,Europe,41.05167,19.96083,Europe/Tirane
Otllak,Europe,40.74389,19.93528,Europe/Tirane
Novoselë,Europe,40.625,19.46694,Europe/Tirane
Nikël,Europe,41.44417,19.74833,Europe/Tirane
Ndroq,Europe,41.26389,19.65583,Europe/Tirane
Mamurras,Europe,41.5775,19.69222,Europe/Tirane
Lushnjë,Europe,40.94194,19.705,Europe/Tirane
Lezhë,Europe,41.78361,19.64361,Europe/Tirane
Laç,Europe,41.63556,19.71306,Europe/Tirane
Kutalli,Europe,40.78389,19.78667,Europe/Tirane
Kuçovë,Europe,40.80028,19.91667,Europe/Tirane
Krujë,Europe,41.50917,19.79278,Europe/Tirane
Kozarë,Europe,40.83083,19.90056,Europe/Tirane
Kavajë,Europe,41.18556,19.55694,Europe/Tirane
Kamëz,Europe,41.38167,19.76028,Europe/Tirane
Golem,Europe,40.96778,19.68528,Europe/Tirane
Fushë-Krujë,Europe,41.47833,19.71778,Europe/Tirane
Fier-Çifçi,Europe,40.71667,19.56667,Europe/Tirane
Fier,Europe,40.72389,19.55611,Europe/Tirane
Durrës,Europe,41.32355,19.45469,Europe/Tirane
Cërrik,Europe,41.03167,19.97583,Europe/Tirane
Berat,Europe,40.70583,19.95222,Europe/Tirane
Ballsh,Europe,40.59889,19.73472,Europe/Tirane
Bajram Curri,Europe,42.35734,20.07679,Europe/Tirane
Yeghegnadzor,Asia,39.76389,45.33239,Asia/Yerevan
Vedi,Asia,39.91291,44.72083,Asia/Yerevan
Vayk,Asia,39.69026,45.46919,Asia/Yerevan
Sisian,Asia,39.52191,46.02696,Asia/Yerevan
Kapan,Asia,39.20755,46.40576,Asia/Yerevan
Kajaran,Asia,39.15091,46.15673,Asia/Yerevan
Goris,Asia,39.51111,46.34168,Asia/Yerevan
Artashat,Asia,39.95484,44.54874,Asia/Yerevan
Ararat,Asia,39.85494,44.6947,Asia/Yerevan
Ararat village,Asia,39.83166,44.70489,Asia/Yerevan
Karmirgyugh,Asia,40.33103,45.14598,Asia/Yerevan
Margara,Asia,40.03332,44.18048,Asia/Yerevan
Zolakar,Asia,40.12512,45.38068,Asia/Yerevan
Yerevan,Asia,40.18111,44.51361,Asia/Yerevan
Yeranos,Asia,40.20428,45.19209,Asia/Yerevan
Vagharshapat,Asia,40.16557,44.29462,Asia/Yerevan
Yeghvard,Asia,40.32293,44.48418,Asia/Yerevan
Vardenis,Asia,40.1827,45.73156,Asia/Yerevan
Vardenik,Asia,40.13722,45.42914,Asia/Yerevan
Tashir,Asia,41.11922,44.28649,Asia/Yerevan
Stepanavan,Asia,41.00995,44.38531,Asia/Yerevan
Spitak,Asia,40.83131,44.27019,Asia/Yerevan
Nubarashen,Asia,40.09075,44.5519,Asia/Yerevan
Sevan,Asia,40.548,44.95314,Asia/Yerevan
Sarukhan,Asia,40.29169,45.13068,Asia/Yerevan
Proshyan,Asia,40.24731,44.41949,Asia/Yerevan
Parakar,Asia,40.16388,44.4057,Asia/Yerevan
Oshakan,Asia,40.26392,44.31671,Asia/Yerevan
Sardarapat,Asia,40.13206,44.00969,Asia/Yerevan
Nor Kharberd,Asia,40.09168,44.48053,Asia/Yerevan
Nor Geghi,Asia,40.31668,44.57785,Asia/Yerevan
Noratus,Asia,40.37793,45.18048,Asia/Yerevan
Nor Hachn,Asia,40.30296,44.58314,Asia/Yerevan
Nerkin Getashen,Asia,40.14172,45.27087,Asia/Yerevan
Mkhchyan,Asia,40.02228,44.4917,Asia/Yerevan
Metsavan,Asia,41.20156,44.22877,Asia/Yerevan
Masis,Asia,40.06595,44.43669,Asia/Yerevan
Martuni,Asia,40.14028,45.30232,Asia/Yerevan
Maralik,Asia,40.57595,43.87059,Asia/Yerevan
Lichk,Asia,40.15933,45.23467,Asia/Yerevan
Vanadzor,Asia,40.80456,44.4939,Asia/Yerevan
Karanlukh,Asia,40.10444,45.28972,Asia/Yerevan
Gavar,Asia,40.35398,45.12386,Asia/Yerevan
Ijevan,Asia,40.87877,45.14851,Asia/Yerevan
Hrazdan,Asia,40.5169,44.75591,Asia/Yerevan
Armavir,Asia,40.15446,44.03815,Asia/Yerevan
Gyumri,Asia,40.7942,43.84528,Asia/Yerevan
Gugark,Asia,40.8046,44.54025,Asia/Yerevan
Garni,Asia,40.11931,44.73442,Asia/Yerevan
Jrvezh,Asia,40.18889,44.62414,Asia/Yerevan
Dilijan,Asia,40.74037,44.86344,Asia/Yerevan
Davtashen,Asia,40.21642,44.48088,Asia/Yerevan
Charentsavan,Asia,40.40289,44.64447,Asia/Yerevan
Chambarak,Asia,40.59655,45.35498,Asia/Yerevan
Byureghavan,Asia,40.31335,44.59685,Asia/Yerevan
Byurakan,Asia,40.33894,44.27275,Asia/Yerevan
Berd,Asia,40.88066,45.38901,Asia/Yerevan
Azatan,Asia,40.71959,43.82727,Asia/Yerevan
Avan,Asia,40.21436,44.57846,Asia/Yerevan
Ashtarak,Asia,40.2991,44.36204,Asia/Yerevan
Artik,Asia,40.61918,43.97207,Asia/Yerevan
Arinj,Asia,40.23356,44.58209,Asia/Yerevan
Aragatsavan,Asia,40.32121,43.66205,Asia/Yerevan
Aparan,Asia,40.59297,44.35945,Asia/Yerevan
Alaverdi,Asia,41.09766,44.67316,Asia/Yerevan
Akhuryan,Asia,40.78081,43.90037,Asia/Yerevan
Abovyan,Asia,40.2717,44.63342,Asia/Yerevan
Zovuni,Asia,40.23307,44.51129,Asia/Yerevan
Kasakh,Asia,40.23555,44.45162,Asia/Yerevan
Metsamor,Asia,40.14459,44.11484,Asia/Yerevan
Ayntap,Asia,40.09659,44.4646,Asia/Yerevan
Geghhovit,Asia,40.10479,45.2855,Asia/Yerevan
Erebuni,Asia,40.13309,44.53009,Asia/Yerevan
Nor Nork,Asia,40.19661,44.5669,Asia/Yerevan
Nork-Marash,Asia,40.17417,44.54083,Asia/Yerevan
Ajapnyak,Asia,40.19917,44.47056,Asia/Yerevan
Kanaker-Zeytun,Asia,40.22,44.53833,Asia/Yerevan
Malatia-Sebastia,Asia,40.17396,44.4457,Asia/Yerevan
Kentron,Asia,40.17806,44.51303,Asia/Yerevan
Shengavit,Asia,40.1557,44.4779,Asia/Yerevan
Arabkir,Asia,40.20624,44.50365,Asia/Yerevan
Saurimo,Africa,-9.66078,20.39155,Africa/Luanda
Lucapa,Africa,-8.41915,20.74466,Africa/Luanda
Dundo,Africa,-7.36643,20.81557,Africa/Luanda
Chitato,Africa,-7.3,20.73333,Africa/Luanda
Cassanguidi,Africa,-7.48367,21.30339,Africa/Luanda
Muconda,Africa,-10.59236,21.31805,Africa/Luanda
Mavinga,Africa,-15.79171,20.35763,Africa/Luanda
Lumbala,Africa,-14.10165,21.43531,Africa/Luanda
Luau,Africa,-10.70727,22.22466,Africa/Luanda
Léua,Africa,-11.65753,20.44772,Africa/Luanda
Jamba,Africa,-17.5,22.66667,Africa/Luanda
Cameia,Africa,-11.69055,20.83922,Africa/Luanda
Dala,Africa,-11.03333,20.2,Africa/Luanda
Cazombo,Africa,-11.89355,22.9024,Africa/Luanda
Camanongue,Africa,-11.4361,20.16459,Africa/Luanda
Nzagi,Africa,-8.38549,15.30126,Africa/Luanda
Uíge,Africa,-7.60874,15.06131,Africa/Luanda
Tombôco,Africa,-6.80517,13.33017,Africa/Luanda
Soyo,Africa,-6.1349,12.36894,Africa/Luanda
Songo,Africa,-7.35207,14.84629,Africa/Luanda
Sanza Pombo,Africa,-7.31473,16.0024,Africa/Luanda
Quibaxe,Africa,-8.50055,14.58589,Africa/Luanda
Puri,Africa,-7.69468,15.65416,Africa/Luanda
Ambrizette,Africa,-7.23116,12.8666,Africa/Luanda
Negage,Africa,-7.75938,15.2722,Africa/Luanda
N'dalatando,Africa,-9.29782,14.91162,Africa/Luanda
Mussende,Africa,-9.95,14.8,Africa/Luanda
Mbanza Kongo,Africa,-6.26667,14.23833,Africa/Luanda
Maquela do Zombo,Africa,-6.05716,15.10971,Africa/Luanda
Malanje,Africa,-9.54015,16.34096,Africa/Luanda
Lucala,Africa,-9.27268,15.25206,Africa/Luanda
Lubalo,Africa,-9.15445,19.28136,Africa/Luanda
Luanda,Africa,-8.83682,13.23432,Africa/Luanda
Cunda diá Baze,Africa,-8.90769,17.05339,Africa/Luanda
Golungo Alto,Africa,-9.13333,14.76667,Africa/Luanda
Dondo,Africa,-9.68456,14.42788,Africa/Luanda
Dondo,Africa,-9.05,15.31667,Africa/Luanda
Damba,Africa,-6.67868,15.13128,Africa/Luanda
Cuímba,Africa,-6.12085,14.62086,Africa/Luanda
Cuilo,Africa,-8.23619,19.52566,Africa/Luanda
Cuango-Luzamba,Africa,-9.14583,18.04453,Africa/Luanda
Cazombo,Africa,-8.73204,15.37124,Africa/Luanda
Caxito,Africa,-8.57848,13.66425,Africa/Luanda
Cangandala,Africa,-9.78333,16.43333,Africa/Luanda
Camabatela,Africa,-8.18812,15.37495,Africa/Luanda
Calandula,Africa,-9.08981,15.95382,Africa/Luanda
Cacuso,Africa,-9.42102,15.74668,Africa/Luanda
Cacongo,Africa,-5.23333,12.13333,Africa/Luanda
Cabinda,Africa,-5.56198,12.19476,Africa/Luanda
Buco Zau,Africa,-4.76667,12.55,Africa/Luanda
Belize,Africa,-4.65,12.76667,Africa/Luanda
Barra do Dande,Africa,-8.47175,13.37011,Africa/Luanda
Banza Damba,Africa,-6.88831,15.01522,Africa/Luanda
Bailundo,Africa,-9.57499,15.99442,Africa/Luanda
Ambriz,Africa,-7.86232,13.11935,Africa/Luanda
Gama,Africa,-8.5675,13.47639,Africa/Luanda
Buco,Africa,-9.55833,16.14639,Africa/Luanda
Xangongo,Africa,-16.7444,14.97494,Africa/Luanda
Alto Hama,Africa,-12.23333,15.55,Africa/Luanda
Uacu Cungo,Africa,-11.35669,15.11719,Africa/Luanda
Virei,Africa,-15.727,12.94961,Africa/Luanda
Ucuma,Africa,-12.96121,15.05958,Africa/Luanda
Ucu Seles,Africa,-11.41237,14.30663,Africa/Luanda
Tômbua,Africa,-15.80394,11.84485,Africa/Luanda
Sumbe,Africa,-11.20605,13.84371,Africa/Luanda
Quipungo,Africa,-14.81909,14.53504,Africa/Luanda
Quilenda,Africa,-11.46667,14.13333,Africa/Luanda
Quibala,Africa,-10.73366,14.97995,Africa/Luanda
Porto Amboim,Africa,-10.73251,13.76844,Africa/Luanda
Ondjiva,Africa,-17.06667,15.73333,Africa/Luanda
Nharêa,Africa,-11.47512,16.96496,Africa/Luanda
Mossamedes,Africa,-15.19611,12.15222,Africa/Luanda
Mungo,Africa,-11.83268,16.23613,Africa/Luanda
Menongue,Africa,-14.6585,17.69099,Africa/Luanda
Matala,Africa,-14.73272,15.03479,Africa/Luanda
Luquembo,Africa,-10.73912,17.71766,Africa/Luanda
Luena,Africa,-11.78333,19.91667,Africa/Luanda
Lubango,Africa,-14.91717,13.4925,Africa/Luanda
Longonjo,Africa,-12.90795,15.24845,Africa/Luanda
Londuimbali,Africa,-12.23712,15.31697,Africa/Luanda
Lobito,Africa,-12.3644,13.53601,Africa/Luanda
Cuíto,Africa,-12.38333,16.93333,Africa/Luanda
Catchiungo,Africa,-12.56598,16.22589,Africa/Luanda
Huambo,Africa,-12.77611,15.73917,Africa/Luanda
Ganda,Africa,-13.01592,14.63502,Africa/Luanda
Gabela,Africa,-10.85147,14.37993,Africa/Luanda
Ecunna,Africa,-12.67889,15.50556,Africa/Luanda
Ebo,Africa,-11.05,14.71667,Africa/Luanda
Dombe Grande,Africa,-12.95167,13.1025,Africa/Luanda
Dala,Africa,-13.78333,16.71667,Africa/Luanda
Cunhinga,Africa,-12.23333,16.78333,Africa/Luanda
Cuemba,Africa,-12.15,18.08333,Africa/Luanda
Cuchi,Africa,-14.64978,16.89929,Africa/Luanda
Cubal,Africa,-13.03865,14.2455,Africa/Luanda
Conda,Africa,-11.10862,14.33621,Africa/Luanda
Chongoroi,Africa,-13.57418,13.94062,Africa/Luanda
Chitembo,Africa,-13.55,16.63333,Africa/Luanda
Chissamba,Africa,-12.16667,17.33333,Africa/Luanda
Chipindo,Africa,-13.81419,15.79041,Africa/Luanda
Chinguar,Africa,-12.55708,16.33805,Africa/Luanda
Chicomba,Africa,-14.13333,14.91667,Africa/Luanda
Chibia,Africa,-15.18315,13.69909,Africa/Luanda
Cela,Africa,-11.42173,15.12345,Africa/Luanda
Catumbela,Africa,-12.43002,13.54677,Africa/Luanda
Catabola,Africa,-12.15,17.28333,Africa/Luanda
Capunda,Africa,-11.13333,14.46667,Africa/Luanda
Camucuio,Africa,-14.11667,13.25,Africa/Luanda
Cambundi Catembo,Africa,-10.07531,17.55058,Africa/Luanda
Camacupa,Africa,-12.01667,17.48333,Africa/Luanda
Caluquembe,Africa,-13.86667,14.43333,Africa/Luanda
Calulo,Africa,-10.00055,14.89519,Africa/Luanda
Calucinga,Africa,-11.32281,16.19588,Africa/Luanda
Calandula,Africa,-13.46667,19.61667,Africa/Luanda
Calai,Africa,-17.88896,19.7706,Africa/Luanda
Caimbambo,Africa,-13.02172,14.00283,Africa/Luanda
Cahama,Africa,-16.28556,14.30962,Africa/Luanda
Caconda,Africa,-13.73564,15.0618,Africa/Luanda
Cacolo,Africa,-10.14503,19.26598,Africa/Luanda
Caála,Africa,-12.8525,15.56056,Africa/Luanda
Bocoio,Africa,-12.47017,14.13688,Africa/Luanda
Bibala,Africa,-14.7665,13.34912,Africa/Luanda
Benguela,Africa,-12.57674,13.40268,Africa/Luanda
Balombo,Africa,-12.35426,14.77232,Africa/Luanda
Baía Farta,Africa,-12.60417,13.19667,Africa/Luanda
Andulo,Africa,-11.48676,16.69663,Africa/Luanda
Cambundi,Africa,-7.46856,17.03769,Africa/Luanda
Cafunfo,Africa,-8.7672,17.99572,Africa/Luanda
Santa Clara,Africa,-10.19156,15.43408,Africa/Luanda
Quissecula,Africa,-11.39223,15.09201,Africa/Luanda
Cambundi,Africa,-10.89481,17.76402,Africa/Luanda
Praia Bebe,Africa,-12.40959,13.50349,Africa/Luanda
Chela,Africa,-12.30261,15.43358,Africa/Luanda
Camboio,Africa,-12.92651,14.09888,Africa/Luanda
Calonamba,Africa,-13.77395,15.09111,Africa/Luanda
Zárate,America,-34.09584,-59.02423,America/Argentina/Buenos_Aires
Colonia Wanda,America,-25.97337,-54.56304,America/Argentina/Cordoba
Villa Ortúzar,America,-34.57973,-58.46829,America/Argentina/Buenos_Aires
Villa Ocampo,America,-28.48689,-59.35423,America/Argentina/Cordoba
María Grande,America,-31.66503,-59.89969,America/Argentina/Cordoba
Villa Lugano,America,-34.67907,-58.47263,America/Argentina/Buenos_Aires
Villa Hernandarias,America,-31.23097,-59.98464,America/Argentina/Cordoba
Villaguay,America,-31.86767,-59.02701,America/Argentina/Cordoba
Villa Gesell,America,-37.26394,-56.97304,America/Argentina/Buenos_Aires
Villa Elisa,America,-32.1632,-58.40082,America/Argentina/Cordoba
Villa de Mayo,America,-34.5108,-58.68059,America/Argentina/Buenos_Aires
Veinticinco de Mayo,America,-27.37796,-54.74505,America/Argentina/Cordoba
Urdinarrain,America,-32.69104,-58.88842,America/Argentina/Cordoba
Tortuguitas,America,-34.47513,-58.75367,America/Argentina/Buenos_Aires
Tigre,America,-34.42603,-58.57962,America/Argentina/Buenos_Aires
Tandil,America,-37.3287,-59.1369,America/Argentina/Buenos_Aires
San Vicente,America,-26.61667,-54.13333,America/Argentina/Cordoba
Santo Tomé,America,-28.55104,-56.04125,America/Argentina/Cordoba
Santos Lugares,America,-34.60306,-58.54074,America/Argentina/Buenos_Aires
Santo Pipó,America,-27.14147,-55.40945,America/Argentina/Cordoba
Santa Rosa,America,-28.26572,-58.12053,America/Argentina/Cordoba
Santa Lucía,America,-28.98984,-59.10076,America/Argentina/Cordoba
Santa Elena,America,-30.94432,-59.78832,America/Argentina/Cordoba
San Salvador,America,-31.62494,-58.50517,America/Argentina/Cordoba
San Pedro,America,-33.67918,-59.66633,America/Argentina/Buenos_Aires
San Pedro,America,-26.6218,-54.10902,America/Argentina/Cordoba
San Miguel,America,-27.99833,-57.58735,America/Argentina/Cordoba
San Luis del Palmar,America,-27.50766,-58.55625,America/Argentina/Cordoba
San Lorenzo,America,-28.13442,-58.76685,America/Argentina/Cordoba
San José de Feliciano,America,-30.38546,-58.75025,America/Argentina/Cordoba
San José,America,-27.76916,-55.78033,America/Argentina/Cordoba
San Javier,America,-30.57781,-59.9317,America/Argentina/Cordoba
San Isidro,America,-34.46971,-58.52111,America/Argentina/Buenos_Aires
San Clemente del Tuyú,America,-36.35419,-56.72568,America/Argentina/Buenos_Aires
San Antonio de Padua,America,-34.66267,-58.69819,America/Argentina/Buenos_Aires
Saladas,America,-28.25504,-58.62386,America/Argentina/Cordoba
Rosario del Tala,America,-32.30073,-59.13928,America/Argentina/Cordoba
Retiro,America,-34.58333,-58.38333,America/Argentina/Buenos_Aires
Resistencia,America,-27.46363,-58.98665,America/Argentina/Cordoba
Reconquista,America,-29.15,-59.65,America/Argentina/Cordoba
Quilmes,America,-34.72065,-58.25454,America/Argentina/Buenos_Aires
Puerto Vilelas,America,-27.51083,-58.94179,America/Argentina/Cordoba
Puerto Tirol,America,-27.37382,-59.08927,America/Argentina/Cordoba
Puerto Rico,America,-26.8089,-55.02147,America/Argentina/Cordoba
Puerto Piray,America,-26.46937,-54.70736,America/Argentina/Cordoba
Puerto Libertad,America,-25.91958,-54.58229,America/Argentina/Cordoba
Puerto Iguazú,America,-25.59912,-54.57355,America/Argentina/Cordoba
Puerto Esperanza,America,-26.02267,-54.61356,America/Argentina/Cordoba
Puerto Eldorado,America,-26.40843,-54.69463,America/Argentina/Cordoba
Presidencia de la Plaza,America,-27.00213,-59.84476,America/Argentina/Cordoba
Posadas,America,-27.39184,-55.92379,America/Argentina/Cordoba
Pontevedra,America,-34.74947,-58.70158,America/Argentina/Buenos_Aires
Pirané,America,-25.73271,-59.10989,America/Argentina/Cordoba
Pilar,America,-34.45867,-58.91398,America/Argentina/Buenos_Aires
Perugorría,America,-29.34077,-58.60826,America/Argentina/Cordoba
Paso de los Libres,America,-29.71251,-57.08771,America/Argentina/Cordoba
Paso de la Patria,America,-27.31738,-58.57264,America/Argentina/Cordoba
Panambí,America,-27.72199,-54.91486,America/Argentina/Cordoba
Pampa del Indio,America,-26.04982,-59.93728,America/Argentina/Cordoba
Palo Santo,America,-25.56461,-59.3378,America/Argentina/Cordoba
Oberá,America,-27.48683,-55.11994,America/Argentina/Cordoba
Nuestra Señora del Rosario de Caá Catí,America,-27.75215,-57.622,America/Argentina/Cordoba
Necochea,America,-38.5545,-58.73961,America/Argentina/Buenos_Aires
Muñiz,America,-34.55622,-58.70739,America/Argentina/Buenos_Aires
Morón,America,-34.65118,-58.62205,America/Argentina/Buenos_Aires
Monte Caseros,America,-30.2518,-57.63537,America/Argentina/Cordoba
Montecarlo,America,-26.56849,-54.7579,America/Argentina/Cordoba
Mocoretá,America,-30.61798,-57.96705,America/Argentina/Cordoba
Merlo,America,-34.66536,-58.72744,America/Argentina/Buenos_Aires
Mercedes,America,-34.65072,-59.43143,America/Argentina/Buenos_Aires
Mercedes,America,-29.18416,-58.07519,America/Argentina/Cordoba
Mburucuyá,America,-28.04532,-58.22835,America/Argentina/Cordoba
Haedo,America,-34.64239,-58.59212,America/Argentina/Buenos_Aires
Margarita Belén,America,-27.25902,-58.97157,America/Argentina/Cordoba
Mar del Plata,America,-38.00042,-57.5562,America/Argentina/Buenos_Aires
Malabrigo,America,-29.34867,-59.97008,America/Argentina/Cordoba
Maciá,America,-32.17254,-59.4006,America/Argentina/Cordoba
Luján,America,-34.5664,-59.11478,America/Argentina/Buenos_Aires
Los Polvorines,America,-34.50316,-58.70596,America/Argentina/Buenos_Aires
Las Toscas,America,-28.35503,-59.25915,America/Argentina/Cordoba
Larroque,America,-33.03511,-58.99982,America/Argentina/Cordoba
La Plata,America,-34.92126,-57.95442,America/Argentina/Buenos_Aires
La Paz,America,-30.74179,-59.64517,America/Argentina/Cordoba
La Leonesa,America,-27.03751,-58.70498,America/Argentina/Cordoba
La Cruz,America,-29.17625,-56.64262,America/Argentina/Cordoba
Jardín América,America,-27.04346,-55.22698,America/Argentina/Cordoba
Ituzaingó,America,-27.58504,-56.68707,America/Argentina/Cordoba
Itatí,America,-27.26915,-58.24249,America/Argentina/Cordoba
Ibarreta,America,-25.2144,-59.8582,America/Argentina/Cordoba
Hurlingham,America,-34.5904,-58.62904,America/Argentina/Buenos_Aires
Gualeguaychú,America,-33.00777,-58.51836,America/Argentina/Cordoba
Gualeguay,America,-33.14091,-59.31257,America/Argentina/Cordoba
Goya,America,-29.13995,-59.26343,America/Argentina/Cordoba
Gobernador Roca,America,-27.19057,-55.46927,America/Argentina/Cordoba
Gobernador Virasora,America,-28.05,-56.03333,America/Argentina/Cordoba
General Pacheco,America,-34.45256,-58.64312,America/Argentina/Buenos_Aires
General José de San Martín,America,-26.53643,-59.34138,America/Argentina/Cordoba
Garupá,America,-27.48315,-55.82924,America/Argentina/Cordoba
Garuhapé,America,-26.82116,-54.95774,America/Argentina/Cordoba
Formosa,America,-26.18489,-58.17313,America/Argentina/Cordoba
Fontana,America,-27.42039,-59.03731,America/Argentina/Cordoba
Federal,America,-30.95619,-58.7797,America/Argentina/Cordoba
Federación,America,-30.99114,-57.91789,America/Argentina/Cordoba
Esquina,America,-30.01476,-59.5289,America/Argentina/Cordoba
El Soberbio,America,-27.29662,-54.19811,America/Argentina/Cordoba
El Palomar,America,-34.61771,-58.60153,America/Argentina/Buenos_Aires
El Colorado,America,-26.30896,-59.37226,America/Argentina/Cordoba
El Alcázar,America,-26.71377,-54.81482,America/Argentina/Cordoba
Dos de Mayo,America,-27.01998,-54.68462,America/Argentina/Cordoba
Don Torcuato,America,-34.49459,-58.62729,America/Argentina/Buenos_Aires
Dolores,America,-36.31539,-57.67546,America/Argentina/Buenos_Aires
Curuzú Cuatiá,America,-29.79145,-58.0499,America/Argentina/Cordoba
Corrientes,America,-27.46784,-58.8344,America/Argentina/Cordoba
Concordia,America,-31.39195,-58.01706,America/Argentina/Cordoba
Concepción del Uruguay,America,-32.48463,-58.23217,America/Argentina/Cordoba
Concepción de la Sierra,America,-27.98225,-55.5208,America/Argentina/Cordoba
Comandante Fontana,America,-25.3354,-59.6825,America/Argentina/Cordoba
Colonia Aurora,America,-27.4737,-54.52416,America/Argentina/Cordoba
Colegiales,America,-34.57365,-58.44924,America/Argentina/Buenos_Aires
Clorinda,America,-25.28627,-57.72168,America/Argentina/Cordoba
Chajarí,America,-30.75482,-57.98196,America/Argentina/Cordoba
Cerro Azul,America,-27.63363,-55.49746,America/Argentina/Cordoba
Castelar,America,-34.65142,-58.64074,America/Argentina/Buenos_Aires
Capioví,America,-26.92936,-55.05773,America/Argentina/Cordoba
Candelaria,America,-27.4617,-55.7449,America/Argentina/Cordoba
Campo Viera,America,-27.33271,-55.05651,America/Argentina/Cordoba
Campo Ramón,America,-27.4549,-55.02122,America/Argentina/Cordoba
Campo Grande,America,-27.2077,-54.97977,America/Argentina/Cordoba
Campana,America,-34.16327,-58.95919,America/Argentina/Buenos_Aires
Buenos Aires,America,-34.61315,-58.37723,America/Argentina/Buenos_Aires
Bovril,America,-31.34358,-59.44652,America/Argentina/Cordoba
Boedo,America,-34.63333,-58.41667,America/Argentina/Buenos_Aires
Bernardo de Irigoyen,America,-26.25543,-53.64682,America/Argentina/Cordoba
Berazategui,America,-34.76531,-58.21278,America/Argentina/Buenos_Aires
Bella Vista,America,-34.5651,-58.69034,America/Argentina/Buenos_Aires
Belgrano,America,-34.5627,-58.45829,America/Argentina/Buenos_Aires
Barranqueras,America,-27.48132,-58.93925,America/Argentina/Cordoba
Barracas,America,-34.64966,-58.38341,America/Argentina/Buenos_Aires
Balcarce,America,-37.84638,-58.25549,America/Argentina/Buenos_Aires
Azul,America,-36.77803,-59.85848,America/Argentina/Buenos_Aires
Avellaneda,America,-29.11761,-59.65834,America/Argentina/Cordoba
Aristóbulo del Valle,America,-27.09571,-54.89344,America/Argentina/Cordoba
Alvear,America,-29.09689,-56.55038,America/Argentina/Cordoba
Alba Posse,America,-27.56942,-54.68383,America/Argentina/Cordoba
Zapala,America,-38.90056,-70.06674,America/Argentina/Salta
Yuto,America,-23.64281,-64.47162,America/Argentina/Jujuy
Yerba Buena,America,-26.81298,-65.29543,America/Argentina/Tucuman
Yacimientos Río Turbio,America,-51.53642,-72.33786,America/Argentina/Rio_Gallegos
Villa Regina,America,-39.09631,-67.08374,America/Argentina/Salta
Villa Paula de Sarmiento,America,-31.4933,-68.53838,America/Argentina/San_Juan
Villa Ojo de Agua,America,-29.50281,-63.69497,America/Argentina/Cordoba
Villa Nueva,America,-32.43289,-63.24811,America/Argentina/Cordoba
Villa María,America,-32.40751,-63.24016,America/Argentina/Cordoba
Villa La Angostura,America,-40.76173,-71.64631,America/Argentina/Salta
Villa Huidobro,America,-34.83826,-64.58686,America/Argentina/Cordoba
Villa General Belgrano,America,-31.97828,-64.55627,America/Argentina/Cordoba
Villa Dolores,America,-31.94504,-65.19025,America/Argentina/Cordoba
Villa de Soto,America,-30.85524,-64.98496,America/Argentina/Cordoba
Villa del Totoral,America,-30.81667,-63.71667,America/Argentina/Cordoba
Villa Constitución,America,-33.22778,-60.3297,America/Argentina/Cordoba
Chañar Ladeado,America,-33.32524,-62.03831,America/Argentina/Cordoba
Villa Carlos Paz,America,-31.4183,-64.49008,America/Argentina/Cordoba
Villa Cañás,America,-34.00565,-61.60757,America/Argentina/Cordoba
Villa Berthet,America,-27.28567,-60.41579,America/Argentina/Cordoba
Villa Ángela,America,-27.57679,-60.71114,America/Argentina/Cordoba
Villa Allende,America,-31.29368,-64.2977,America/Argentina/Cordoba
Viedma,America,-40.81519,-63.0004,America/Argentina/Salta
Vicuña Mackenna,America,-33.91823,-64.39066,America/Argentina/Cordoba
Victorica,America,-36.21654,-65.43709,America/Argentina/Salta
Victoria,America,-32.61841,-60.15478,America/Argentina/Cordoba
Viale,America,-31.86819,-60.00755,America/Argentina/Cordoba
Vera,America,-29.4593,-60.21261,America/Argentina/Cordoba
Venado Tuerto,America,-33.74556,-61.96885,America/Argentina/Cordoba
Veinticinco de Mayo,America,-37.77491,-67.71354,America/Argentina/Salta
Veinticinco de Mayo,America,-35.43247,-60.17156,America/Argentina/Buenos_Aires
Valle Hermoso,America,-31.11205,-64.48114,America/Argentina/Cordoba
Ushuaia,America,-54.81084,-68.31591,America/Argentina/Ushuaia
Unquillo,America,-31.23717,-64.31176,America/Argentina/Cordoba
Trevelin,America,-43.0858,-71.46386,America/Argentina/Catamarca
Tres Isletas,America,-26.34067,-60.43207,America/Argentina/Cordoba
Tres Arroyos,America,-38.37694,-60.27563,America/Argentina/Buenos_Aires
Trelew,America,-43.24895,-65.30505,America/Argentina/Catamarca
Trancas,America,-26.23136,-65.28093,America/Argentina/Tucuman
Totoras,America,-32.5844,-61.16852,America/Argentina/Cordoba
Tostado,America,-29.23202,-61.76917,America/Argentina/Cordoba
Tinogasta,America,-28.06556,-67.56437,America/Argentina/Catamarca
Tilisarao,America,-32.73125,-65.29138,America/Argentina/San_Luis
Tilcara,America,-23.57817,-65.39516,America/Argentina/Jujuy
Termas de Río Hondo,America,-27.49362,-64.85972,America/Argentina/Cordoba
Tartagal,America,-22.51682,-63.8056,America/Argentina/Salta
Tancacha,America,-32.23751,-63.97983,America/Argentina/Cordoba
Tafí Viejo,America,-26.7333,-65.26146,America/Argentina/Tucuman
Taco Pozo,America,-25.61557,-63.26708,America/Argentina/Cordoba
Suncho Corral,America,-27.93195,-63.43021,America/Argentina/Cordoba
Sunchales,America,-30.94404,-61.56148,America/Argentina/Cordoba
Simoca,America,-27.2629,-65.35792,America/Argentina/Tucuman
Sierra Grande,America,-41.60546,-65.35702,America/Argentina/Salta
Senillosa,America,-39.01412,-68.43281,America/Argentina/Salta
Sastre,America,-31.76762,-61.82887,America/Argentina/Cordoba
Sarmiento,America,-45.58687,-69.06894,America/Argentina/Catamarca
Santo Tomé,America,-31.66274,-60.7653,America/Argentina/Cordoba
Santiago del Estero,America,-27.80047,-64.26285,America/Argentina/Cordoba
Santa Sylvina,America,-27.83154,-61.13601,America/Argentina/Cordoba
Santa Rosa de Río Primero,America,-31.15353,-63.39938,America/Argentina/Cordoba
Santa Rosa de Calamuchita,America,-32.06439,-64.53961,America/Argentina/Cordoba
Santa Rosa,America,-36.61617,-64.28991,America/Argentina/Salta
Santa Lucía,America,-31.54055,-68.49794,America/Argentina/San_Juan
Santa Fe,America,-31.64881,-60.70868,America/Argentina/Cordoba
San Salvador de Jujuy,America,-24.1928,-65.29342,America/Argentina/Jujuy
San Ramón de la Nueva Orán,America,-23.13705,-64.32426,America/Argentina/Salta
San Rafael,America,-34.61531,-68.33238,America/Argentina/Mendoza
San Pedro de Jujuy,America,-24.23127,-64.86614,America/Argentina/Jujuy
San Nicolás de los Arroyos,America,-33.33425,-60.2108,America/Argentina/Buenos_Aires
San Miguel de Tucumán,America,-26.81601,-65.21051,America/Argentina/Tucuman
San Martín de los Andes,America,-40.15789,-71.35337,America/Argentina/Salta
San Martín,America,-33.08338,-68.47312,America/Argentina/Mendoza
Villa General San Martín,America,-31.43963,-68.5205,America/Argentina/San_Juan
San Luis,America,-33.2914,-66.32467,America/Argentina/San_Luis
San Justo,America,-30.78913,-60.59189,America/Argentina/Cordoba
San Juan,America,-31.53726,-68.52568,America/Argentina/San_Juan
San José de Jáchal,America,-30.24162,-68.74662,America/Argentina/San_Juan
San Jorge,America,-31.89618,-61.85984,America/Argentina/Cordoba
San Francisco,America,-31.42497,-62.08404,America/Argentina/Cordoba
Catamarca,America,-28.46957,-65.78524,America/Argentina/Catamarca
San Cristóbal,America,-30.31053,-61.23724,America/Argentina/Cordoba
San Carlos Centro,America,-31.72864,-61.09192,America/Argentina/Cordoba
San Bernardo,America,-27.28672,-60.71293,America/Argentina/Cordoba
San Benito,America,-31.78283,-60.43949,America/Argentina/Cordoba
San Antonio Oeste,America,-40.73193,-64.94769,America/Argentina/Salta
Villa San Agustín,America,-30.63464,-67.4679,America/Argentina/San_Juan
Sampacho,America,-33.38452,-64.72274,America/Argentina/Cordoba
Salta,America,-24.80645,-65.41999,America/Argentina/Salta
Salsipuedes,America,-31.13789,-64.29277,America/Argentina/Cordoba
Rufino,America,-34.26827,-62.71262,America/Argentina/Cordoba
Rosario,America,-32.94682,-60.63932,America/Argentina/Cordoba
Roldán,America,-32.89846,-60.90681,America/Argentina/Cordoba
Río Tercero,America,-32.17675,-64.11295,America/Argentina/Cordoba
Río Segundo,America,-31.6501,-63.91165,America/Argentina/Cordoba
Río Primero,America,-31.3339,-63.61856,America/Argentina/Cordoba
Río Grande,America,-53.78773,-67.70975,America/Argentina/Ushuaia
Río Gallegos,America,-51.6253,-69.25229,America/Argentina/Rio_Gallegos
Río Cuarto,America,-33.13044,-64.35272,America/Argentina/Cordoba
Río Ceballos,America,-31.1697,-64.3175,America/Argentina/Cordoba
Recreo,America,-31.49076,-60.73299,America/Argentina/Cordoba
Recreo,America,-29.28184,-65.06096,America/Argentina/Catamarca
Realicó,America,-35.03821,-64.24631,America/Argentina/Salta
Rawson,America,-43.30031,-65.10564,America/Argentina/Catamarca
Rafaela,America,-31.25033,-61.4867,America/Argentina/Cordoba
Rada Tilly,America,-45.92462,-67.55424,America/Argentina/Catamarca
Quitilipi,America,-26.8708,-60.21537,America/Argentina/Cordoba
Quimilí,America,-27.64615,-62.41655,America/Argentina/Cordoba
Punta Alta,America,-38.8805,-62.07503,America/Argentina/Buenos_Aires
Puerto San Julián,America,-49.30696,-67.7298,America/Argentina/Rio_Gallegos
Puerto Madryn,America,-42.76848,-65.03827,America/Argentina/Catamarca
Puerto Deseado,America,-47.75131,-65.89674,America/Argentina/Rio_Gallegos
Presidencia Roque Sáenz Peña,America,-26.79095,-60.44132,America/Argentina/Cordoba
Pozo del Molle,America,-32.02127,-62.91931,America/Argentina/Cordoba
Pocito,America,-31.68333,-68.58333,America/Argentina/San_Juan
Plottier,America,-38.96667,-68.23333,America/Argentina/Salta
Plaza Huincul,America,-38.93012,-69.20778,America/Argentina/Salta
Pilar,America,-31.68129,-63.8824,America/Argentina/Cordoba
Pico Truncado,America,-46.79942,-67.95785,America/Argentina/Rio_Gallegos
Pergamino,America,-33.89101,-60.57462,America/Argentina/Buenos_Aires
Pérez,America,-32.99835,-60.76791,America/Argentina/Cordoba
Paraná,America,-31.73271,-60.52897,America/Argentina/Cordoba
Pampa del Infierno,America,-26.50353,-61.17654,America/Argentina/Cordoba
Palpalá,America,-24.25798,-65.21358,America/Argentina/Jujuy
Palma Sola,America,-23.97771,-64.30311,America/Argentina/Jujuy
Oncativo,America,-31.9134,-63.68214,America/Argentina/Cordoba
Oliva,America,-32.03823,-63.57063,America/Argentina/Cordoba
Olavarría,America,-36.89384,-60.32319,America/Argentina/Buenos_Aires
Nueve de Julio,America,-35.44394,-60.88463,America/Argentina/Buenos_Aires
Nueve de Julio,America,-31.6692,-68.39013,America/Argentina/San_Juan
Neuquén,America,-38.95078,-68.0592,America/Argentina/Salta
Morteros,America,-30.71066,-62.00714,America/Argentina/Cordoba
Monteros,America,-27.16825,-65.49892,America/Argentina/Tucuman
Monte Maíz,America,-33.20424,-62.60052,America/Argentina/Cordoba
Montecristo,America,-31.34136,-63.94535,America/Argentina/Cordoba
Monte Buey,America,-32.91649,-62.4564,America/Argentina/Cordoba
Mina Clavero,America,-31.72945,-65.00501,America/Argentina/Cordoba
Merlo,America,-32.34288,-65.01396,America/Argentina/San_Luis
Mendoza,America,-32.88946,-68.84582,America/Argentina/Mendoza
Marcos Juárez,America,-32.6978,-62.10672,America/Argentina/Cordoba
Malvinas Argentinas,America,-31.38194,-64.05545,America/Argentina/Cordoba
Malagueño,America,-31.46737,-64.35903,America/Argentina/Cordoba
Machagai,America,-26.92617,-60.04852,America/Argentina/Cordoba
Los Frentones,America,-26.40706,-61.41284,America/Argentina/Cordoba
Los Altos,America,-28.04501,-65.49764,America/Argentina/Catamarca
Lincoln,America,-34.86819,-61.52929,America/Argentina/Buenos_Aires
Libertador General San Martín,America,-23.81305,-64.79353,America/Argentina/Jujuy
Leones,America,-32.65828,-62.29773,America/Argentina/Cordoba
La Toma,America,-33.05353,-65.62254,America/Argentina/San_Luis
Las Varillas,America,-31.8704,-62.71968,America/Argentina/Cordoba
Las Rosas,America,-32.47661,-61.58041,America/Argentina/Cordoba
Las Parejas,America,-32.68478,-61.51637,America/Argentina/Cordoba
Las Lomitas,America,-24.70818,-60.59239,America/Argentina/Cordoba
Las Lajitas,America,-24.72762,-64.19335,America/Argentina/Salta
Las Higueras,America,-33.09386,-64.28824,America/Argentina/Cordoba
Las Heras,America,-46.54131,-68.93227,America/Argentina/Rio_Gallegos
Las Breñas,America,-27.08819,-61.08217,America/Argentina/Cordoba
La Rioja,America,-29.41328,-66.85637,America/Argentina/La_Rioja
La Quiaca,America,-22.10448,-65.59646,America/Argentina/Jujuy
Lamarque,America,-39.42515,-65.70215,America/Argentina/Salta
Laguna Paiva,America,-31.30391,-60.65894,America/Argentina/Cordoba
Laguna Larga,America,-31.77569,-63.80038,America/Argentina/Cordoba
La Falda,America,-31.09321,-64.48448,America/Argentina/Cordoba
La Cumbre,America,-30.98225,-64.49074,America/Argentina/Cordoba
La Cocha,America,-27.76927,-65.58711,America/Argentina/Tucuman
La Carlota,America,-33.42012,-63.2975,America/Argentina/Cordoba
La Calera,America,-31.34582,-64.33849,America/Argentina/Cordoba
Laboulaye,America,-34.12688,-63.39083,America/Argentina/Cordoba
Laborde,America,-33.15481,-62.85741,America/Argentina/Cordoba
Justo Daract,America,-33.86056,-65.18224,America/Argentina/San_Luis
Justiniano Posse,America,-32.88344,-62.67965,America/Argentina/Cordoba
Junín de los Andes,America,-39.94931,-71.07543,America/Argentina/Salta
Junín,America,-34.59391,-60.94644,America/Argentina/Buenos_Aires
Joaquín V. González,America,-25.11364,-64.12628,America/Argentina/Salta
Jesús María,America,-30.98153,-64.09424,America/Argentina/Cordoba
Intendente Alvear,America,-35.23468,-63.59209,America/Argentina/Salta
La Esperanza,America,-24.2247,-64.83807,America/Argentina/Jujuy
Ingeniero Luis A. Huergo,America,-39.07146,-67.2379,America/Argentina/Salta
Ingeniero Jacobacci,America,-41.3292,-69.55015,America/Argentina/Salta
Ingeniero Guillermo N. Juárez,America,-23.89861,-61.85502,America/Argentina/Cordoba
Icaño,America,-28.91946,-65.33023,America/Argentina/Catamarca
Humahuaca,America,-23.20612,-65.34742,America/Argentina/Jujuy
Huinca Renancó,America,-34.84131,-64.3746,America/Argentina/Cordoba
Huillapima,America,-28.72602,-65.97879,America/Argentina/Catamarca
Huerta Grande,America,-31.0752,-64.49063,America/Argentina/Cordoba
Hernando,America,-32.42785,-63.7335,America/Argentina/Cordoba
Hermoso Campo,America,-27.61005,-61.34421,America/Argentina/Cordoba
Guatraché,America,-37.67073,-63.53576,America/Argentina/Salta
Graneros,America,-27.6489,-65.44004,America/Argentina/Tucuman
Granadero Baigorria,America,-32.85683,-60.71754,America/Argentina/Cordoba
Gobernador Gálvez,America,-33.03016,-60.64045,America/Argentina/Cordoba
General Villegas,America,-35.03264,-63.01484,America/Argentina/Buenos_Aires
General Roca,America,-39.03333,-67.58333,America/Argentina/Salta
General Ramírez,America,-32.17718,-60.20172,America/Argentina/Cordoba
General Pinedo,America,-27.32534,-61.28101,America/Argentina/Cordoba
General Pico,America,-35.6593,-63.75787,America/Argentina/Salta
General Levalle,America,-34.00719,-63.92334,America/Argentina/Cordoba
General Fernández Oro,America,-38.95297,-67.92489,America/Argentina/Salta
General Mosconi,America,-22.59617,-63.811,America/Argentina/Salta
General Conesa,America,-40.10408,-64.45592,America/Argentina/Salta
General Cabrera,America,-32.81048,-63.87213,America/Argentina/Cordoba
General Acha,America,-37.37821,-64.60422,America/Argentina/Salta
Gálvez,America,-32.02927,-61.22103,America/Argentina/Cordoba
Gaiman,America,-43.2909,-65.4977,America/Argentina/Catamarca
Funes,America,-32.91568,-60.80995,America/Argentina/Cordoba
Fray Luis Beltrán,America,-39.31369,-65.76002,America/Argentina/Salta
Fray Luis A. Beltrán,America,-32.79122,-60.72819,America/Argentina/Cordoba
Fraile Pintado,America,-23.94148,-64.8009,America/Argentina/Jujuy
Firmat,America,-33.45937,-61.4832,America/Argentina/Cordoba
Fiambalá,America,-27.67225,-67.6187,America/Argentina/Catamarca
Famaillá,America,-27.05452,-65.40189,America/Argentina/Tucuman
Esquel,America,-42.91147,-71.31947,America/Argentina/Catamarca
Esperanza,America,-31.4488,-60.93173,America/Argentina/Cordoba
Embarcación,America,-23.21003,-64.09965,America/Argentina/Salta
Embalse,America,-32.20681,-64.40064,America/Argentina/Cordoba
El Trébol,America,-32.2008,-61.7014,America/Argentina/Cordoba
El Quebrachal,America,-25.28333,-64.06667,America/Argentina/Salta
El Galpón,America,-25.38062,-64.65162,America/Argentina/Salta
El Carril,America,-25.07185,-65.49302,America/Argentina/Salta
El Calafate,America,-50.34075,-72.27682,America/Argentina/Rio_Gallegos
El Bolsón,America,-41.96051,-71.53336,America/Argentina/Salta
Eduardo Castex,America,-35.91606,-64.29558,America/Argentina/Salta
Diamante,America,-32.0671,-60.64267,America/Argentina/Cordoba
Devoto,America,-31.40167,-62.30622,America/Argentina/Cordoba
Despeñaderos,America,-31.81431,-64.29491,America/Argentina/Cordoba
Deán Funes,America,-30.42498,-64.35274,America/Argentina/Cordoba
Cutral-Có,America,-38.93424,-69.23052,America/Argentina/Salta
Cruz del Eje,America,-30.72644,-64.80387,America/Argentina/Cordoba
Cruz Alta,America,-33.00796,-61.8083,America/Argentina/Cordoba
Crespo,America,-32.03077,-60.30619,America/Argentina/Cordoba
Cosquín,America,-31.24525,-64.46574,America/Argentina/Cordoba
Corzuela,America,-26.95135,-60.97036,America/Argentina/Cordoba
Corral de Bustos,America,-33.28377,-62.18581,America/Argentina/Cordoba
Coronel Suárez,America,-37.45859,-61.93294,America/Argentina/Buenos_Aires
Coronel Moldes,America,-33.622,-64.59702,America/Argentina/Cordoba
Coronel Du Graty,America,-27.68216,-60.90443,America/Argentina/Cordoba
Coronel Dorrego,America,-38.71872,-61.28849,America/Argentina/Buenos_Aires
Coronda,America,-31.97263,-60.91983,America/Argentina/Cordoba
Córdoba,America,-31.40648,-64.18853,America/Argentina/Cordoba
Concepción del Bermejo,America,-26.60036,-60.94624,America/Argentina/Cordoba
Comodoro Rivadavia,America,-45.86256,-67.494,America/Argentina/Catamarca
Clodomira,America,-27.5766,-64.13201,America/Argentina/Cordoba
Cipolletti,America,-38.93392,-67.99032,America/Argentina/Salta
Cinco Saltos,America,-38.82225,-68.06293,America/Argentina/Salta
Chos Malal,America,-37.37809,-70.27085,America/Argentina/Salta
Choele Choel,America,-39.28941,-65.6606,America/Argentina/Salta
Chivilcoy,America,-34.8969,-60.01909,America/Argentina/Buenos_Aires
Chimbas,America,-31.49313,-68.53263,America/Argentina/San_Juan
Chilecito,America,-29.16195,-67.4974,America/Argentina/La_Rioja
Chicoana,America,-25.10502,-65.53473,America/Argentina/Salta
Charata,America,-27.21787,-61.18738,America/Argentina/Cordoba
Chamical,America,-30.36002,-66.31399,America/Argentina/La_Rioja
Chacabuco,America,-34.64203,-60.47124,America/Argentina/Buenos_Aires
Cervantes,America,-39.05444,-67.39426,America/Argentina/Salta
Ceres,America,-29.881,-61.94504,America/Argentina/Cordoba
Centenario,America,-38.82955,-68.1318,America/Argentina/Salta
Caucete,America,-31.6515,-68.28216,America/Argentina/San_Juan
Catriel,America,-37.87552,-67.79451,America/Argentina/Salta
Juan José Castelli,America,-25.9466,-60.62008,America/Argentina/Cordoba
Casilda,America,-33.04417,-61.16806,America/Argentina/Cordoba
Carcarañá,America,-32.85679,-61.15331,America/Argentina/Cordoba
Capitán Bermúdez,America,-32.82262,-60.71852,America/Argentina/Cordoba
Capilla del Monte,America,-30.8607,-64.52531,America/Argentina/Cordoba
Capayán,America,-28.77436,-66.04749,America/Argentina/Catamarca
Canals,America,-33.56224,-62.88509,America/Argentina/Cordoba
Cañada de Gómez,America,-32.81636,-61.39493,America/Argentina/Cordoba
Campo Largo,America,-26.80031,-60.83903,America/Argentina/Cordoba
Campo Gallo,America,-26.58395,-62.84705,America/Argentina/Cordoba
Calingasta,America,-31.33394,-69.4208,America/Argentina/San_Juan
Calilegua,America,-23.77441,-64.77003,America/Argentina/Jujuy
Caleta Olivia,America,-46.44785,-67.52274,America/Argentina/Rio_Gallegos
Calchaquí,America,-29.88767,-60.28697,America/Argentina/Cordoba
Caimancito,America,-23.74084,-64.59316,America/Argentina/Jujuy
Cafayate,America,-26.07286,-65.97766,America/Argentina/Salta
Brinkmann,America,-30.86651,-62.04311,America/Argentina/Cordoba
Berrotarán,America,-32.44961,-64.38798,America/Argentina/Cordoba
Beltrán,America,-27.82696,-64.05846,America/Argentina/Cordoba
Bell Ville,America,-32.63021,-62.68883,America/Argentina/Cordoba
Bella Vista,America,-27.03424,-65.30196,America/Argentina/Tucuman
Balnearia,America,-31.01285,-62.66536,America/Argentina/Cordoba
Bahía Blanca,America,-38.7176,-62.26545,America/Argentina/Buenos_Aires
Avia Terai,America,-26.68665,-60.72803,America/Argentina/Cordoba
Arroyo Seco,America,-33.15489,-60.50863,America/Argentina/Cordoba
Arroyito,America,-31.41917,-63.05084,America/Argentina/Cordoba
Arrecifes,America,-34.06306,-60.10261,America/Argentina/Buenos_Aires
Armstrong,America,-32.78215,-61.60222,America/Argentina/Cordoba
Arias,America,-33.64037,-62.40272,America/Argentina/Cordoba
Arauco,America,-28.58071,-66.7925,America/Argentina/La_Rioja
Apolinario Saravia,America,-24.43232,-63.9956,America/Argentina/Salta
Andalgalá,America,-27.58185,-66.31626,America/Argentina/Catamarca
Añatuya,America,-28.4602,-62.83354,America/Argentina/Cordoba
Alta Gracia,America,-31.64978,-64.42972,America/Argentina/Cordoba
Almafuerte,America,-32.19227,-64.25569,America/Argentina/Cordoba
Allen,America,-38.97736,-67.82714,America/Argentina/Salta
Alderetes,America,-26.81787,-65.14202,America/Argentina/Tucuman
Albardón,America,-31.43722,-68.52556,America/Argentina/San_Juan
Aguilares,America,-27.4315,-65.61465,America/Argentina/Tucuman
Adelia María,America,-33.63217,-64.02103,America/Argentina/Cordoba
Abra Pampa,America,-22.72273,-65.69693,America/Argentina/Jujuy
Balvanera,America,-34.61032,-58.39766,America/Argentina/Buenos_Aires
Villa Santa Rita,America,-34.61082,-58.481,America/Argentina/Buenos_Aires
Villa Mercedes,America,-33.67571,-65.45783,America/Argentina/San_Luis
La Punta,America,-33.18368,-66.3127,America/Argentina/San_Luis
San Miguel,America,-34.54335,-58.71229,America/Argentina/Buenos_Aires
San Carlos de Bariloche,America,-41.14557,-71.30822,America/Argentina/Salta
Río Turbio,America,-51.53587,-72.33673,America/Argentina/Rio_Gallegos
Adrogué,America,-34.80041,-58.38384,America/Argentina/Buenos_Aires
Ingeniero Pablo Nogués,America,-34.47775,-58.70652,America/Argentina/Buenos_Aires
Villa Sarmiento,America,-34.63364,-58.57047,America/Argentina/Buenos_Aires
José C. Paz,America,-34.51541,-58.76813,America/Argentina/Buenos_Aires
Taulaga,Pacific,-11.05528,-171.08833,Pacific/Pago_Pago
Ta`ū,Pacific,-14.23361,-169.51444,Pacific/Pago_Pago
Tāfuna,Pacific,-14.33583,-170.72,Pacific/Pago_Pago
Pago Pago,Pacific,-14.27806,-170.7025,Pacific/Pago_Pago
Döbling,Europe,48.25,16.33333,Europe/Vienna
Neu-Guntramsdorf,Europe,48.0642,16.31573,Europe/Vienna
Zirl,Europe,47.2741,11.23961,Europe/Vienna
Zell am See,Europe,47.32306,12.79839,Europe/Vienna
Wörgl,Europe,47.48906,12.06174,Europe/Vienna
Wolfurt,Europe,47.46667,9.75,Europe/Vienna
Wölfnitz,Europe,46.66639,14.25806,Europe/Vienna
Wimpassing,Europe,48.16667,13.98333,Europe/Vienna
Wilten,Europe,47.25829,11.38808,Europe/Vienna
Wilhelmsburg,Europe,48.10571,15.60539,Europe/Vienna
Wiener Neustadt,Europe,47.80485,16.23196,Europe/Vienna
Wiener Neudorf,Europe,48.08278,16.31384,Europe/Vienna
Vienna,Europe,48.20849,16.37208,Europe/Vienna
Wetzelsdorf,Europe,47.05293,15.39923,Europe/Vienna
Wels,Europe,48.16667,14.03333,Europe/Vienna
Weiz,Europe,47.21667,15.61667,Europe/Vienna
Wattens,Europe,47.29419,11.5907,Europe/Vienna
Waltendorf,Europe,47.06667,15.46667,Europe/Vienna
Vösendorf,Europe,48.12107,16.34036,Europe/Vienna
Vorchdorf,Europe,48.00388,13.92122,Europe/Vienna
Völs,Europe,47.25,11.33333,Europe/Vienna
Völkendorf,Europe,46.60806,13.83153,Europe/Vienna
Voitsberg,Europe,47.04445,15.15313,Europe/Vienna
Villach,Europe,46.61028,13.85583,Europe/Vienna
Viktring,Europe,46.59194,14.26917,Europe/Vienna
Tulln,Europe,48.32829,16.05858,Europe/Vienna
Trofaiach,Europe,47.42524,15.00681,Europe/Vienna
Traun,Europe,48.22086,14.23833,Europe/Vienna
Traiskirchen,Europe,48.01485,16.29324,Europe/Vienna
Ternitz,Europe,47.71565,16.03575,Europe/Vienna
Telfs,Europe,47.30707,11.06817,Europe/Vienna
Strasshof an der Nordbahn,Europe,48.31667,16.66667,Europe/Vienna
Straßgang,Europe,47.03333,15.4,Europe/Vienna
Stockerau,Europe,48.38333,16.21667,Europe/Vienna
Steyr,Europe,48.04274,14.42127,Europe/Vienna
Spratzern,Europe,48.17044,15.61844,Europe/Vienna
Spittal an der Drau,Europe,46.8,13.5,Europe/Vienna
Sollenau,Europe,47.89834,16.24833,Europe/Vienna
Hall in Tirol,Europe,47.28333,11.51667,Europe/Vienna
Simmering,Europe,48.18333,16.43333,Europe/Vienna
Seiersberg,Europe,47,15.4,Europe/Vienna
Schwechat,Europe,48.13333,16.46667,Europe/Vienna
Schwaz,Europe,47.35169,11.71014,Europe/Vienna
Sankt Veit an der Glan,Europe,46.76806,14.36028,Europe/Vienna
Sankt Valentin,Europe,48.16667,14.51667,Europe/Vienna
Sankt Ruprecht,Europe,46.6,14.31667,Europe/Vienna
Sankt Pölten,Europe,48.2,15.63333,Europe/Vienna
Sankt Peter,Europe,47.05,15.46667,Europe/Vienna
Sankt Peter,Europe,46.62978,14.34016,Europe/Vienna
Sankt Martin,Europe,46.61667,14.28333,Europe/Vienna
Sankt Martin,Europe,48.23091,14.26781,Europe/Vienna
Sankt Johann in Tirol,Europe,47.5233,12.4232,Europe/Vienna
Salzburg,Europe,47.79941,13.04399,Europe/Vienna
Saalfelden am Steinernen Meer,Europe,47.42681,12.848,Europe/Vienna
Rum,Europe,47.28333,11.45,Europe/Vienna
Ries,Europe,47.08315,15.485,Europe/Vienna
Ried im Innkreis,Europe,48.21123,13.48855,Europe/Vienna
Reutte,Europe,47.48333,10.71667,Europe/Vienna
Rankweil,Europe,47.27108,9.64308,Europe/Vienna
Purkersdorf,Europe,48.20769,16.17539,Europe/Vienna
Puntigam,Europe,47.03333,15.43333,Europe/Vienna
Pressbaum,Europe,48.18333,16.08333,Europe/Vienna
Pradl,Europe,47.26539,11.4152,Europe/Vienna
Pöllau,Europe,47.3,15.83333,Europe/Vienna
Pinkafeld,Europe,47.3709,16.1241,Europe/Vienna
Perg,Europe,48.25,14.63333,Europe/Vienna
Perchtoldsdorf,Europe,48.11935,16.26607,Europe/Vienna
Ottakring,Europe,48.21667,16.3,Europe/Vienna
Oberwart,Europe,47.28971,16.20595,Europe/Vienna
Oberndorf bei Salzburg,Europe,47.95,12.93333,Europe/Vienna
Neuzeug,Europe,48.05,14.33333,Europe/Vienna
Neusiedl am See,Europe,47.94901,16.8417,Europe/Vienna
Neunkirchen,Europe,47.72096,16.08107,Europe/Vienna
Neuhofen an der Krems,Europe,48.13866,14.22764,Europe/Vienna
Mürzzuschlag,Europe,47.6066,15.67226,Europe/Vienna
Mühlau,Europe,47.28333,11.4,Europe/Vienna
Mödling,Europe,48.08605,16.28921,Europe/Vienna
Mistelbach,Europe,48.57,16.57667,Europe/Vienna
Micheldorf in Oberösterreich,Europe,47.87764,14.13357,Europe/Vienna
Meidling,Europe,48.16667,16.33333,Europe/Vienna
Mattighofen,Europe,48.10732,13.15081,Europe/Vienna
Mattersburg,Europe,47.73333,16.4,Europe/Vienna
Mariatrost,Europe,47.09641,15.46537,Europe/Vienna
Maria Enzersdorf,Europe,48.1,16.28333,Europe/Vienna
Marchtrenk,Europe,48.19022,14.10908,Europe/Vienna
Lustenau,Europe,47.42642,9.65851,Europe/Vienna
Lochau,Europe,47.53333,9.75,Europe/Vienna
Linz,Europe,48.30639,14.28611,Europe/Vienna
Liezen,Europe,47.56667,14.23333,Europe/Vienna
Lienz,Europe,46.8289,12.76903,Europe/Vienna
Liebenau,Europe,47.03333,15.46667,Europe/Vienna
Lichtenegg,Europe,48.15,14,Europe/Vienna
Leopoldsdorf,Europe,48.11557,16.39126,Europe/Vienna
Leoben,Europe,47.3765,15.09144,Europe/Vienna
Leibnitz,Europe,46.78161,15.53836,Europe/Vienna
Lauterach,Europe,47.47572,9.72941,Europe/Vienna
Langenzersdorf,Europe,48.30432,16.36143,Europe/Vienna
Landeck,Europe,47.13988,10.56593,Europe/Vienna
Laakirchen,Europe,47.98188,13.82166,Europe/Vienna
Kufstein,Europe,47.58333,12.16667,Europe/Vienna
Kremsmünster,Europe,48.0529,14.12919,Europe/Vienna
Krems an der Donau,Europe,48.40921,15.61415,Europe/Vienna
Kottingbrunn,Europe,47.95096,16.22715,Europe/Vienna
Korneuburg,Europe,48.35,16.33333,Europe/Vienna
Knittelfeld,Europe,47.21667,14.81667,Europe/Vienna
Klosterneuburg,Europe,48.30521,16.32522,Europe/Vienna
Klagenfurt am Wörthersee,Europe,46.62472,14.30528,Europe/Vienna
Kitzbühel,Europe,47.44637,12.39215,Europe/Vienna
Kirchberg in Tirol,Europe,47.44539,12.31602,Europe/Vienna
Kindberg,Europe,47.5,15.45,Europe/Vienna
Kalsdorf bei Graz,Europe,46.96528,15.48028,Europe/Vienna
Judendorf,Europe,47.4,15.1,Europe/Vienna
Judenburg,Europe,47.16667,14.66667,Europe/Vienna
Jenbach,Europe,47.39173,11.77245,Europe/Vienna
Innsbruck,Europe,47.26266,11.39454,Europe/Vienna
Innere Stadt,Europe,48.20906,16.37135,Europe/Vienna
Imst,Europe,47.24504,10.73974,Europe/Vienna
Penzing,Europe,48.2,16.26667,Europe/Vienna
Hötting,Europe,47.26815,11.36868,Europe/Vienna
Horn,Europe,48.66274,15.65663,Europe/Vienna
Hörbranz,Europe,47.55,9.75,Europe/Vienna
Hollabrunn,Europe,48.55,16.08333,Europe/Vienna
Hohenems,Europe,47.36121,9.68694,Europe/Vienna
Höchst,Europe,47.45934,9.6405,Europe/Vienna
Himberg,Europe,48.08333,16.43333,Europe/Vienna
Hietzing,Europe,48.18623,16.2965,Europe/Vienna
Hernals,Europe,48.23333,16.26667,Europe/Vienna
Hart,Europe,48.26526,14.25691,Europe/Vienna
Hard,Europe,47.48306,9.68306,Europe/Vienna
Hallein,Europe,47.68333,13.1,Europe/Vienna
Hainburg an der Donau,Europe,48.14627,16.94504,Europe/Vienna
Haid,Europe,48.20477,14.25107,Europe/Vienna
Hafendorf,Europe,47.45653,15.31837,Europe/Vienna
Haag,Europe,48.27063,14.26875,Europe/Vienna
Guntramsdorf,Europe,48.04687,16.31384,Europe/Vienna
Groß-Enzersdorf,Europe,48.20278,16.55083,Europe/Vienna
Graz,Europe,47.06667,15.45,Europe/Vienna
Gratkorn,Europe,47.13333,15.35,Europe/Vienna
Götzis,Europe,47.33306,9.63306,Europe/Vienna
Gösting,Europe,47.09788,15.39777,Europe/Vienna
Gmunden,Europe,47.91839,13.79933,Europe/Vienna
Gleisdorf,Europe,47.10559,15.71011,Europe/Vienna
Gerasdorf bei Wien,Europe,48.29447,16.46765,Europe/Vienna
Gänserndorf,Europe,48.33925,16.72016,Europe/Vienna
Gallneukirchen,Europe,48.35363,14.41604,Europe/Vienna
Fürstenfeld,Europe,47.05,16.08333,Europe/Vienna
Fünfhaus,Europe,48.19596,16.3183,Europe/Vienna
Freistadt,Europe,48.51103,14.50453,Europe/Vienna
Floridsdorf,Europe,48.25,16.4,Europe/Vienna
Fischamend,Europe,48.11556,16.61278,Europe/Vienna
Feldkirch,Europe,47.23306,9.6,Europe/Vienna
Essling,Europe,48.21289,16.52442,Europe/Vienna
Enns,Europe,48.21346,14.47612,Europe/Vienna
Eisenstadt,Europe,47.84565,16.52327,Europe/Vienna
Eggenberg,Europe,47.07,15.39871,Europe/Vienna
Ebreichsdorf,Europe,47.95579,16.40705,Europe/Vienna
Dornbirn,Europe,47.41427,9.74195,Europe/Vienna
Deutschlandsberg,Europe,46.81528,15.22222,Europe/Vienna
Deuchendorf,Europe,47.46593,15.32172,Europe/Vienna
Brunn am Gebirge,Europe,48.10697,16.28466,Europe/Vienna
Bruck an der Mur,Europe,47.41667,15.28333,Europe/Vienna
Bruck an der Leitha,Europe,48.0242,16.7757,Europe/Vienna
Breitenfurt bei Wien,Europe,48.13333,16.15,Europe/Vienna
Bregenz,Europe,47.50311,9.7471,Europe/Vienna
Bludenz,Europe,47.15476,9.82255,Europe/Vienna
Bischofshofen,Europe,47.41667,13.21667,Europe/Vienna
Berndorf,Europe,47.94567,16.10973,Europe/Vienna
Bad Vöslau,Europe,47.96533,16.21359,Europe/Vienna
Bad Hall,Europe,48.03832,14.20773,Europe/Vienna
Baden,Europe,48.00543,16.23264,Europe/Vienna
Axams,Europe,47.23111,11.27892,Europe/Vienna
Aspern,Europe,48.21806,16.48306,Europe/Vienna
Arzl,Europe,47.28333,11.43333,Europe/Vienna
Annabichl,Europe,46.65,14.31667,Europe/Vienna
Amstetten,Europe,48.1229,14.87206,Europe/Vienna
Amras,Europe,47.25,11.41667,Europe/Vienna
Altach,Europe,47.35438,9.65207,Europe/Vienna
Absam,Europe,47.29572,11.50593,Europe/Vienna
Finkenstein am Faaker See,Europe,46.56081,13.87115,Europe/Vienna
Attnang-Puchheim,Europe,48.00833,13.71667,Europe/Vienna
Auen,Europe,46.59963,13.84389,Europe/Vienna
Favoriten,Europe,48.16116,16.38233,Europe/Vienna
Frastanz,Europe,47.21735,9.62995,Europe/Vienna
Kirchbichl,Europe,47.51743,12.09629,Europe/Vienna
Kirchenviertel,Europe,47.13124,15.34764,Europe/Vienna
Oberhaid,Europe,48.17593,14.01495,Europe/Vienna
Villacher Vorstadt,Europe,46.62368,14.28892,Europe/Vienna
Lind,Europe,46.62244,13.84715,Europe/Vienna
Villach-Innere Stadt,Europe,46.61275,13.84638,Europe/Vienna
Donaustadt,Europe,48.2333,16.46002,Europe/Vienna
Jakomini,Europe,47.05441,15.44984,Europe/Vienna
Lend,Europe,47.08256,15.41589,Europe/Vienna
Geidorf,Europe,47.08393,15.444,Europe/Vienna
Sankt Leonhard,Europe,47.06924,15.45784,Europe/Vienna
Andritz,Europe,47.11387,15.42348,Europe/Vienna
Gries,Europe,47.06236,15.42421,Europe/Vienna
Währing,Europe,48.22611,16.34484,Europe/Vienna
Landstraße,Europe,48.2019,16.38792,Europe/Vienna
Margareten,Europe,48.1855,16.35373,Europe/Vienna
Mariahilf,Europe,48.19571,16.35215,Europe/Vienna
Neubau,Europe,48.20172,16.34715,Europe/Vienna
Josefstadt,Europe,48.21243,16.34549,Europe/Vienna
Alsergrund,Europe,48.22321,16.35506,Europe/Vienna
Brigittenau,Europe,48.24275,16.37551,Europe/Vienna
Yanchep,Australia,-31.54678,115.63171,Australia/Perth
Wembley,Australia,-31.93308,115.81783,Australia/Perth
Wellard,Australia,-32.26667,115.83333,Australia/Perth
Wanneroo,Australia,-31.75,115.8,Australia/Perth
Swan View,Australia,-31.88333,116.05,Australia/Perth
Subiaco,Australia,-31.9485,115.8268,Australia/Perth
Strathalbyn,Australia,-35.25979,138.89247,Australia/Adelaide
Spearwood,Australia,-32.10534,115.77797,Australia/Perth
South Perth,Australia,-31.98333,115.86667,Australia/Perth
Seaton,Australia,-34.9,138.51667,Australia/Adelaide
Scarborough,Australia,-31.89578,115.76431,Australia/Perth
Salisbury,Australia,-34.76667,138.63333,Australia/Adelaide
Safety Bay,Australia,-32.30463,115.74213,Australia/Perth
Roleystone,Australia,-32.11458,116.0706,Australia/Perth
Rockingham,Australia,-32.27682,115.72978,Australia/Perth
Prospect,Australia,-34.88241,138.5933,Australia/Adelaide
Port Pirie,Australia,-33.19176,138.01746,Australia/Adelaide
Port Lincoln,Australia,-34.72625,135.87442,Australia/Adelaide
Port Hedland,Australia,-20.31215,118.61059,Australia/Perth
Port Augusta,Australia,-32.49597,137.77281,Australia/Adelaide
Perth,Australia,-31.95224,115.8614,Australia/Perth
Nuriootpa,Australia,-34.46825,138.99767,Australia/Adelaide
Northam,Australia,-31.64932,116.67423,Australia/Perth
Newman,Australia,-23.35644,119.73553,Australia/Perth
Nedlands,Australia,-31.98184,115.8073,Australia/Perth
Murray Bridge,Australia,-35.11986,139.27345,Australia/Adelaide
Mount Isa,Australia,-20.72523,139.49727,Australia/Brisbane
Mount Barker,Australia,-35.06667,138.86667,Australia/Adelaide
Mosman Park,Australia,-32.00538,115.7638,Australia/Perth
Morphett Vale,Australia,-35.13333,138.51667,Australia/Adelaide
Modbury,Australia,-34.83333,138.68333,Australia/Adelaide
Midland,Australia,-31.88909,116.0107,Australia/Perth
Maylands,Australia,-31.93097,115.89486,Australia/Perth
Margaret River,Australia,-33.95504,115.07599,Australia/Perth
Mandurah,Australia,-32.5269,115.7217,Australia/Perth
Maddington,Australia,-32.05,115.98333,Australia/Perth
Kwinana,Australia,-32.23013,115.78128,Australia/Perth
Kununurra,Australia,-15.77825,128.74208,Australia/Perth
Kenwick,Australia,-32.03333,115.96667,Australia/Perth
Kelmscott,Australia,-32.12434,116.0259,Australia/Perth
Ingle Farm,Australia,-34.83333,138.63333,Australia/Adelaide
Hope Valley,Australia,-34.83333,138.7,Australia/Adelaide
Happy Valley,Australia,-35.08333,138.53333,Australia/Adelaide
Grange,Australia,-34.90223,138.49022,Australia/Adelaide
Gosnells,Australia,-32.081,116.0054,Australia/Perth
Golden Grove,Australia,-34.78333,138.73333,Australia/Adelaide
Geraldton,Australia,-28.77897,114.61459,Australia/Perth
Gawler,Australia,-34.60251,138.74902,Australia/Adelaide
Fremantle,Australia,-32.05632,115.74557,Australia/Perth
Findon,Australia,-34.9,138.53333,Australia/Adelaide
Darwin,Australia,-12.46113,130.84185,Australia/Darwin
Cottesloe,Australia,-31.99426,115.75816,Australia/Perth
Collie,Australia,-33.36206,116.15617,Australia/Perth
Caversham,Australia,-31.88333,115.96667,Australia/Perth
Carnarvon,Australia,-24.88258,113.65713,Australia/Perth
Cannington,Australia,-32.01625,115.93648,Australia/Perth
Campbelltown,Australia,-34.88333,138.66667,Australia/Adelaide
Byford,Australia,-32.22099,116.009,Australia/Perth
Busselton,Australia,-33.65249,115.3455,Australia/Perth
Bunbury,Australia,-33.32711,115.64137,Australia/Perth
Bullsbrook,Australia,-31.66905,115.9999,Australia/Perth
Broome,Australia,-17.95538,122.23922,Australia/Perth
Bentley,Australia,-32.00224,115.92473,Australia/Perth
Bassendean,Australia,-31.90906,115.9437,Australia/Perth
Australind,Australia,-33.2792,115.71504,Australia/Perth
Armadale,Australia,-32.14607,116.0093,Australia/Perth
Applecross,Australia,-32.01667,115.83333,Australia/Perth
Alice Springs,Australia,-23.69748,133.88362,Australia/Darwin
Albany,Australia,-35.02692,117.88369,Australia/Perth
Adelaide,Australia,-34.92866,138.59863,Australia/Adelaide
Eaton,Australia,-33.31664,115.70503,Australia/Perth
Quinns Rocks,Australia,-31.67379,115.70372,Australia/Perth
East Fremantle,Australia,-32.03823,115.7676,Australia/Perth
Claremont,Australia,-31.97961,115.7823,Australia/Perth
Bicton,Australia,-32.02778,115.78333,Australia/Perth
Attadale,Australia,-32.02489,115.802,Australia/Perth
Warnbro,Australia,-32.34017,115.7473,Australia/Perth
Mullaloo,Australia,-31.77896,115.73676,Australia/Perth
Young,Australia,-34.3135,148.30107,Australia/Sydney
Yeppoon,Australia,-23.12683,150.74406,Australia/Brisbane
Yass,Australia,-34.84036,148.90987,Australia/Sydney
Yarrawonga,Australia,-36.01923,145.99973,Australia/Sydney
Yarraville,Australia,-37.81667,144.9,Australia/Melbourne
Yamba,Australia,-29.4375,153.35914,Australia/Sydney
Wynyard,Australia,-40.9897,145.72617,Australia/Hobart
Wynnum,Australia,-27.44527,153.15813,Australia/Brisbane
Woy Woy,Australia,-33.48433,151.32471,Australia/Sydney
Worongary,Australia,-28.05,153.35,Australia/Brisbane
Woree,Australia,-16.95,145.75,Australia/Brisbane
Woonona,Australia,-34.34932,150.91443,Australia/Sydney
Woolgoolga,Australia,-30.11058,153.20067,Australia/Sydney
Woodridge,Australia,-27.63333,153.1,Australia/Brisbane
Woodend,Australia,-37.35469,144.52902,Australia/Melbourne
Wollert,Australia,-37.58333,145.03333,Australia/Melbourne
Wodonga,Australia,-36.12179,146.88809,Australia/Melbourne
Wingham,Australia,-31.86676,152.36989,Australia/Sydney
Windsor,Australia,-37.85344,144.99241,Australia/Melbourne
Williamstown,Australia,-37.86349,144.899,Australia/Melbourne
Whittlesea,Australia,-37.51152,145.11836,Australia/Melbourne
Wheelers Hill,Australia,-37.9,145.18333,Australia/Melbourne
West Tamworth,Australia,-31.10236,150.91447,Australia/Sydney
West Pymble,Australia,-33.76667,151.13333,Australia/Sydney
Westmead,Australia,-33.80383,150.98768,Australia/Sydney
West Hoxton,Australia,-33.93388,150.83234,Australia/Sydney
Werribee,Australia,-37.9,144.66667,Australia/Melbourne
Wentworthville,Australia,-33.80652,150.96785,Australia/Sydney
Wentworth Falls,Australia,-33.71033,150.37534,Australia/Sydney
Wendouree,Australia,-37.53078,143.82838,Australia/Melbourne
Wellington Point,Australia,-27.48333,153.25,Australia/Brisbane
Waurn Ponds,Australia,-38.21667,144.28333,Australia/Melbourne
Wauchope,Australia,-31.45792,152.72617,Australia/Sydney
Watsonia,Australia,-37.71667,145.08333,Australia/Melbourne
Warwick,Australia,-28.21901,152.03438,Australia/Brisbane
Warrnambool,Australia,-38.38176,142.48799,Australia/Melbourne
Warrandyte,Australia,-37.75,145.23333,Australia/Melbourne
Warragul,Australia,-38.15912,145.93118,Australia/Melbourne
Wantirna South,Australia,-37.88333,145.21667,Australia/Melbourne
Wantirna,Australia,-37.85,145.21667,Australia/Melbourne
Wangaratta,Australia,-36.35846,146.32056,Australia/Melbourne
Wamberal,Australia,-33.41554,151.44559,Australia/Sydney
Wallsend,Australia,-32.90133,151.66432,Australia/Sydney
Wallan,Australia,-37.41625,144.97859,Australia/Melbourne
Waitara,Australia,-33.71092,151.1033,Australia/Sydney
Wahroonga,Australia,-33.71816,151.11561,Australia/Sydney
Wagga Wagga,Australia,-35.12577,147.35375,Australia/Sydney
Villawood,Australia,-33.88434,150.98027,Australia/Sydney
Victoria Point,Australia,-27.58329,153.31172,Australia/Brisbane
Vermont,Australia,-37.83616,145.19428,Australia/Melbourne
Vaucluse,Australia,-33.85549,151.27754,Australia/Sydney
Urraween,Australia,-25.29522,152.82206,Australia/Brisbane
Urangan,Australia,-25.29214,152.90535,Australia/Brisbane
Upwey,Australia,-37.9,145.33333,Australia/Melbourne
Upper Coomera,Australia,-27.87683,153.28572,Australia/Brisbane
Unanderra,Australia,-34.45306,150.84746,Australia/Sydney
Ulverstone,Australia,-41.16026,146.18242,Australia/Hobart
Ulladulla,Australia,-35.35906,150.47247,Australia/Sydney
Tweed Heads,Australia,-28.17671,153.5452,Australia/Sydney
Turramurra,Australia,-33.73342,151.12849,Australia/Sydney
Tuncurry,Australia,-32.17443,152.49876,Australia/Sydney
Tumut,Australia,-35.30642,148.21818,Australia/Sydney
Tullamarine,Australia,-37.70128,144.881,Australia/Melbourne
Tugun,Australia,-28.15,153.5,Australia/Brisbane
Tuggeranong Administrative District,Australia,-35.41647,149.06954,Australia/Sydney
Truganina,Australia,-37.81667,144.75,Australia/Melbourne
Trinity Beach,Australia,-16.78876,145.69682,Australia/Brisbane
Traralgon,Australia,-38.19528,146.5415,Australia/Melbourne
Townsville,Australia,-19.26639,146.80569,Australia/Brisbane
Torquay,Australia,-38.33085,144.32638,Australia/Melbourne
Torquay,Australia,-25.28496,152.87886,Australia/Brisbane
Toowoomba,Australia,-27.56056,151.95386,Australia/Brisbane
Toowong,Australia,-27.48333,152.98333,Australia/Brisbane
Toorak,Australia,-37.84165,145.01438,Australia/Melbourne
Toongabbie West,Australia,-33.78333,150.93333,Australia/Sydney
Toongabbie,Australia,-33.78333,150.95,Australia/Sydney
Thornton,Australia,-32.78333,151.63333,Australia/Sydney
Thornleigh,Australia,-33.73228,151.07895,Australia/Sydney
Thornlands,Australia,-27.55751,153.26481,Australia/Brisbane
Thornbury,Australia,-37.75819,145.00583,Australia/Melbourne
Thomastown,Australia,-37.68333,145.01667,Australia/Melbourne
Thirroul,Australia,-34.31604,150.92142,Australia/Sydney
Tewantin,Australia,-26.39104,153.03432,Australia/Brisbane
Terrigal,Australia,-33.44815,151.44665,Australia/Sydney
Templestowe Lower,Australia,-37.76667,145.11667,Australia/Melbourne
Templestowe,Australia,-37.75405,145.14864,Australia/Melbourne
Tarragindi,Australia,-27.52713,153.04556,Australia/Brisbane
Tarneit,Australia,-37.83634,144.65952,Australia/Melbourne
Taree,Australia,-31.91099,152.45387,Australia/Sydney
Tamworth,Australia,-31.09048,150.92905,Australia/Sydney
Tahmoor,Australia,-34.22246,150.59467,Australia/Sydney
Sydney,Australia,-33.86785,151.20732,Australia/Sydney
Sydenham,Australia,-37.7,144.76667,Australia/Melbourne
Swan Hill,Australia,-35.33781,143.5544,Australia/Melbourne
Sutherland,Australia,-34.031,151.05532,Australia/Sydney
Surry Hills,Australia,-33.88374,151.21282,Australia/Sydney
Surrey Hills,Australia,-37.81667,145.1,Australia/Melbourne
Surfers Paradise,Australia,-28.00274,153.42999,Australia/Brisbane
Sunshine,Australia,-37.78333,144.83333,Australia/Melbourne
Sunnybank,Australia,-27.58003,153.06064,Australia/Brisbane
Sunbury,Australia,-37.57742,144.72607,Australia/Melbourne
Strathpine,Australia,-27.30414,152.98977,Australia/Brisbane
Strathfieldsaye,Australia,-36.80667,144.35487,Australia/Melbourne
Strathfield,Australia,-33.88096,151.07986,Australia/Sydney
Stawell,Australia,-37.05632,142.78088,Australia/Melbourne
Stanthorpe,Australia,-28.65425,151.93388,Australia/Brisbane
Stanmore,Australia,-33.89407,151.16424,Australia/Sydney
Springwood,Australia,-33.7,150.55,Australia/Sydney
Springvale South,Australia,-37.96667,145.15,Australia/Melbourne
Springvale,Australia,-37.94853,145.15274,Australia/Melbourne
Spring Hill,Australia,-27.46141,153.02311,Australia/Brisbane
South Yarra,Australia,-37.83834,144.99149,Australia/Melbourne
Southport,Australia,-27.96724,153.39796,Australia/Brisbane
South Melbourne,Australia,-37.83333,144.96667,Australia/Melbourne
South Grafton,Australia,-29.7076,152.92627,Australia/Sydney
Somerville,Australia,-38.21667,145.16667,Australia/Melbourne
Smithfield,Australia,-33.85,150.93333,Australia/Sydney
Slacks Creek,Australia,-27.65,153.15,Australia/Brisbane
Singleton,Australia,-32.56742,151.16603,Australia/Sydney
Shepparton,Australia,-36.38047,145.39867,Australia/Melbourne
Seymour,Australia,-37.02655,145.13924,Australia/Melbourne
Seven Hills,Australia,-33.78333,150.93333,Australia/Sydney
Sebastopol,Australia,-37.58532,143.83953,Australia/Melbourne
Seaford,Australia,-38.1,145.13333,Australia/Melbourne
Scoresby,Australia,-37.9,145.23333,Australia/Melbourne
Scone,Australia,-32.05014,150.86893,Australia/Sydney
Sarina,Australia,-21.4191,149.21677,Australia/Brisbane
Sandringham,Australia,-37.95218,145.01129,Australia/Melbourne
Sale,Australia,-38.11095,147.06802,Australia/Melbourne
Saint Kilda,Australia,-37.8676,144.98099,Australia/Melbourne
Saint Ives,Australia,-33.72976,151.15977,Australia/Sydney
Saint Albans,Australia,-37.73333,144.8,Australia/Melbourne
Rye,Australia,-38.38528,144.81221,Australia/Melbourne
Ryde,Australia,-33.8188,151.1062,Australia/Sydney
Rydalmere,Australia,-33.81453,151.03751,Australia/Sydney
Rutherford,Australia,-32.71667,151.53333,Australia/Sydney
Rowville,Australia,-37.93333,145.23333,Australia/Melbourne
Roseville,Australia,-33.78333,151.18333,Australia/Sydney
Rosebud,Australia,-38.35542,144.9068,Australia/Melbourne
Rosanna,Australia,-37.73895,145.06735,Australia/Melbourne
Rooty Hill,Australia,-33.76667,150.83333,Australia/Sydney
Roma,Australia,-26.56741,148.78751,Australia/Brisbane
Rockhampton,Australia,-23.38032,150.50595,Australia/Brisbane
Rockdale,Australia,-33.95,151.13333,Australia/Sydney
Riverstone,Australia,-33.68333,150.86667,Australia/Sydney
Ringwood North,Australia,-37.8,145.23333,Australia/Melbourne
Ringwood East,Australia,-37.81667,145.25,Australia/Melbourne
Ringwood,Australia,-37.81667,145.23333,Australia/Melbourne
Richmond,Australia,-37.81819,145.00176,Australia/Melbourne
Richmond,Australia,-33.59956,150.75142,Australia/Sydney
Rhodes,Australia,-33.82663,151.0881,Australia/Sydney
Revesby,Australia,-33.95,151.01667,Australia/Sydney
Reservoir,Australia,-37.71667,145,Australia/Melbourne
Redlynch,Australia,-16.9254,145.69559,Australia/Brisbane
Redland Bay,Australia,-27.6113,153.30022,Australia/Brisbane
Red Hill,Australia,-20.31667,148.5,Australia/Brisbane
Redfern,Australia,-33.89279,151.20415,Australia/Sydney
Red Cliffs,Australia,-34.30942,142.18971,Australia/Melbourne
Raymond Terrace,Australia,-32.75952,151.7505,Australia/Sydney
Queanbeyan,Australia,-35.35493,149.232,Australia/Sydney
Quakers Hill,Australia,-33.73333,150.88333,Australia/Sydney
Pyrmont,Australia,-33.86985,151.19402,Australia/Sydney
Pymble,Australia,-33.74386,151.14188,Australia/Sydney
Preston,Australia,-37.75,145.01667,Australia/Melbourne
Prahran,Australia,-37.85114,144.99318,Australia/Melbourne
Potts Point,Australia,-33.86701,151.22586,Australia/Sydney
Port Melbourne,Australia,-37.83961,144.94228,Australia/Melbourne
Port Macquarie,Australia,-31.43084,152.90894,Australia/Sydney
Portland,Australia,-38.3462,141.60257,Australia/Melbourne
Port Kembla,Australia,-34.4818,150.9012,Australia/Sydney
Port Douglas,Australia,-16.48383,145.46725,Australia/Brisbane
Point Vernon,Australia,-25.25727,152.81725,Australia/Brisbane
Point Cook,Australia,-37.91482,144.75088,Australia/Melbourne
Pimpama,Australia,-27.81667,153.3,Australia/Brisbane
Petrie,Australia,-27.26667,152.98333,Australia/Brisbane
Penshurst,Australia,-33.96667,151.08333,Australia/Sydney
Penrith,Australia,-33.75,150.7,Australia/Sydney
Pennant Hills,Australia,-33.73783,151.07216,Australia/Sydney
Pendle Hill,Australia,-33.80402,150.95543,Australia/Sydney
Pascoe Vale,Australia,-37.73333,144.93333,Australia/Melbourne
Parkville,Australia,-37.78333,144.95,Australia/Melbourne
Parkes,Australia,-33.1372,148.1759,Australia/Sydney
Parkdale,Australia,-37.99187,145.08128,Australia/Melbourne
Palmwoods,Australia,-26.68584,152.96135,Australia/Brisbane
Palm Beach,Australia,-28.11694,153.46584,Australia/Brisbane
Pakenham,Australia,-38.07018,145.47411,Australia/Melbourne
Oxley,Australia,-27.55,152.98333,Australia/Brisbane
Ormond,Australia,-37.9,145.03333,Australia/Melbourne
Ormiston,Australia,-27.51667,153.25,Australia/Brisbane
Ormeau,Australia,-27.76791,153.2428,Australia/Brisbane
Orange,Australia,-33.28397,149.10018,Australia/Sydney
Officer,Australia,-38.05916,145.40947,Australia/Melbourne
Oatley,Australia,-33.98004,151.07201,Australia/Sydney
Oakleigh East,Australia,-37.9,145.11667,Australia/Melbourne
Oakleigh,Australia,-37.89809,145.08837,Australia/Melbourne
Nunawading,Australia,-37.82043,145.17308,Australia/Melbourne
Nowra,Australia,-34.88422,150.60036,Australia/Sydney
North Sydney,Australia,-33.839,151.2072,Australia/Sydney
North Melbourne,Australia,-37.79798,144.94512,Australia/Melbourne
Northmead,Australia,-33.78378,150.99858,Australia/Sydney
North Mackay,Australia,-21.12009,149.17941,Australia/Brisbane
Fitzroy North,Australia,-37.78862,144.97885,Australia/Melbourne
Northcote,Australia,-37.76667,145,Australia/Melbourne
Normanhurst,Australia,-33.7237,151.09576,Australia/Sydney
Noosaville,Australia,-26.4,153.06667,Australia/Brisbane
Noosa Heads,Australia,-26.39433,153.0901,Australia/Brisbane
Noble Park,Australia,-37.96667,145.16667,Australia/Melbourne
Newtown,Australia,-33.89835,151.17754,Australia/Sydney
Newport,Australia,-37.84427,144.88483,Australia/Melbourne
Newport,Australia,-33.65639,151.31401,Australia/Sydney
New Norfolk,Australia,-42.78261,147.0587,Australia/Hobart
Newnham,Australia,-41.38969,147.11397,Australia/Hobart
Newcastle,Australia,-32.92953,151.7801,Australia/Sydney
Nerang,Australia,-27.98941,153.33633,Australia/Brisbane
Nelson Bay,Australia,-32.72043,152.14398,Australia/Sydney
Narre Warren North,Australia,-37.98333,145.31667,Australia/Melbourne
Narre Warren,Australia,-38.03333,145.3,Australia/Melbourne
Narrabri,Australia,-30.32488,149.78266,Australia/Sydney
Narrabeen,Australia,-33.71277,151.29736,Australia/Sydney
Narara,Australia,-33.39593,151.33527,Australia/Sydney
Narangba,Australia,-27.20338,152.95923,Australia/Brisbane
Naracoorte,Australia,-36.95785,140.7383,Australia/Adelaide
Nambucca Heads,Australia,-30.64318,153.00884,Australia/Sydney
Nambucca,Australia,-30.63333,152.98333,Australia/Sydney
Nambour,Australia,-26.62613,152.95941,Australia/Brisbane
Muswellbrook,Australia,-32.26118,150.89009,Australia/Sydney
Murwillumbah,Australia,-28.32732,153.39339,Australia/Sydney
Murrumbeena,Australia,-37.9,145.06667,Australia/Melbourne
Mulgrave,Australia,-37.92845,145.17708,Australia/Melbourne
Mudgeeraba,Australia,-28.08333,153.36667,Australia/Brisbane
Mudgee,Australia,-32.59426,149.5871,Australia/Sydney
Mount Waverley,Australia,-37.87709,145.12939,Australia/Melbourne
Mount Martha,Australia,-38.26667,145.01667,Australia/Melbourne
Mount Gambier,Australia,-37.8318,140.77919,Australia/Adelaide
Mount Evelyn,Australia,-37.78333,145.38333,Australia/Melbourne
Mount Eliza,Australia,-38.18333,145.08333,Australia/Melbourne
Mount Druitt,Australia,-33.76667,150.81667,Australia/Sydney
Mount Cotton,Australia,-27.63333,153.23333,Australia/Brisbane
Mount Colah,Australia,-33.68333,151.11667,Australia/Sydney
Moss Vale,Australia,-34.55374,150.37115,Australia/Sydney
Mosman,Australia,-33.83902,151.23956,Australia/Sydney
Morwell,Australia,-38.23476,146.39499,Australia/Melbourne
Mortdale,Australia,-33.96897,151.07231,Australia/Sydney
Mornington,Australia,-38.21792,145.03876,Australia/Melbourne
Moree,Australia,-29.46278,149.84157,Australia/Sydney
Mordialloc,Australia,-38,145.08333,Australia/Melbourne
Morayfield,Australia,-27.10876,152.94907,Australia/Brisbane
South Morang,Australia,-37.65,145.1,Australia/Melbourne
Mooroopna,Australia,-36.4,145.35,Australia/Melbourne
Mooroolbark,Australia,-37.78247,145.31682,Australia/Melbourne
Moorabbin,Australia,-37.94146,145.05779,Australia/Melbourne
Moonee Ponds,Australia,-37.76667,144.91667,Australia/Melbourne
Moonah,Australia,-42.84617,147.30228,Australia/Hobart
Mooloolaba,Australia,-26.68164,153.11925,Australia/Brisbane
Montrose,Australia,-37.81667,145.35,Australia/Melbourne
Montmorency,Australia,-37.71667,145.11667,Australia/Melbourne
Mona Vale,Australia,-33.67757,151.30307,Australia/Sydney
Moe,Australia,-38.17828,146.26099,Australia/Melbourne
Moama,Australia,-36.10413,144.7608,Australia/Sydney
Mittagong,Australia,-34.45002,150.44572,Australia/Sydney
Mitchelton,Australia,-27.41667,152.96667,Australia/Brisbane
Mitcham,Australia,-37.81667,145.2,Australia/Melbourne
Miranda,Australia,-34.03857,151.10005,Australia/Sydney
Minto,Australia,-34.03333,150.85,Australia/Sydney
Mill Park,Australia,-37.66667,145.06667,Australia/Melbourne
Mildura,Australia,-34.18551,142.16251,Australia/Melbourne
Merrylands,Australia,-33.83333,150.98333,Australia/Sydney
Mernda,Australia,-37.60075,145.09555,Australia/Melbourne
Mentone,Australia,-37.98333,145.06667,Australia/Melbourne
Menai,Australia,-34.01667,151.01667,Australia/Sydney
Melton South,Australia,-37.70773,144.57493,Australia/Melbourne
Melton,Australia,-37.68339,144.58543,Australia/Melbourne
Melbourne,Australia,-37.814,144.96332,Australia/Melbourne
Medowie,Australia,-32.7415,151.8676,Australia/Sydney
McKinnon,Australia,-37.911,145.038,Australia/Melbourne
Maudsland,Australia,-27.95,153.26667,Australia/Brisbane
Matraville,Australia,-33.96344,151.23195,Australia/Sydney
Mascot,Australia,-33.92598,151.19347,Australia/Sydney
Maryborough,Australia,-37.04562,143.73923,Australia/Melbourne
Maryborough,Australia,-25.54073,152.70493,Australia/Brisbane
Marrickville,Australia,-33.90741,151.15546,Australia/Sydney
Maroubra,Australia,-33.95,151.23333,Australia/Sydney
Maribyrnong,Australia,-37.77241,144.88435,Australia/Melbourne
Margate,Australia,-27.24761,153.09809,Australia/Brisbane
Mareeba,Australia,-16.99096,145.42306,Australia/Brisbane
Manly,Australia,-33.79798,151.28826,Australia/Sydney
Malvern,Australia,-37.86259,145.02811,Australia/Melbourne
Malabar,Australia,-33.96216,151.24796,Australia/Sydney
Maitland,Australia,-32.73308,151.5574,Australia/Sydney
Maffra,Australia,-37.97132,146.98366,Australia/Melbourne
Macleod,Australia,-37.723,145.073,Australia/Melbourne
Mackay,Australia,-21.15345,149.16554,Australia/Brisbane
Lysterfield,Australia,-37.93333,145.3,Australia/Melbourne
Long Jetty,Australia,-33.35917,151.48834,Australia/Sydney
Loganlea,Australia,-27.67535,153.13472,Australia/Brisbane
Loganholme,Australia,-27.68444,153.1864,Australia/Brisbane
Liverpool,Australia,-33.91938,150.92588,Australia/Sydney
Lithgow,Australia,-33.4845,150.14903,Australia/Sydney
Lisarow,Australia,-33.38333,151.36667,Australia/Sydney
Lindisfarne,Australia,-42.84837,147.36192,Australia/Hobart
Lindfield,Australia,-33.78333,151.16667,Australia/Sydney
Lilydale,Australia,-37.75,145.35,Australia/Melbourne
Lidcombe,Australia,-33.86436,151.0397,Australia/Sydney
Leumeah,Australia,-34.05,150.83333,Australia/Sydney
Leopold,Australia,-38.19001,144.46825,Australia/Melbourne
Leongatha,Australia,-38.47607,145.94685,Australia/Melbourne
Leichhardt,Australia,-33.88341,151.15625,Australia/Sydney
Leeton,Australia,-34.55105,146.40483,Australia/Sydney
Lawnton,Australia,-27.28333,152.98333,Australia/Brisbane
Lavington,Australia,-36.03976,146.93958,Australia/Sydney
Launceston,Australia,-41.43876,147.13467,Australia/Hobart
Lara,Australia,-38.02388,144.40617,Australia/Melbourne
Langwarrin,Australia,-38.16667,145.16667,Australia/Melbourne
Lane Cove,Australia,-33.8157,151.16679,Australia/Sydney
Lalor,Australia,-37.66667,145.01667,Australia/Melbourne
Lakemba,Australia,-33.91972,151.07592,Australia/Sydney
Lake Albert,Australia,-35.16667,147.38333,Australia/Sydney
Kyneton,Australia,-37.24444,144.45148,Australia/Melbourne
Kyabram,Australia,-36.31335,145.05035,Australia/Melbourne
Kurri Kurri,Australia,-32.81933,151.47908,Australia/Sydney
Kogarah,Australia,-33.9681,151.13564,Australia/Sydney
Kingston,Australia,-42.97638,147.30351,Australia/Hobart
Kingston,Australia,-27.66667,153.11667,Australia/Brisbane
Kingscliff,Australia,-28.25983,153.57816,Australia/Sydney
Kingaroy,Australia,-26.53994,151.8373,Australia/Brisbane
Kilsyth,Australia,-37.8,145.31667,Australia/Melbourne
Kilmore,Australia,-37.29577,144.95252,Australia/Melbourne
Kiama,Australia,-34.66828,150.85219,Australia/Sydney
Keysborough,Australia,-37.99116,145.17385,Australia/Melbourne
Kew,Australia,-37.80639,145.03086,Australia/Melbourne
Kensington,Australia,-33.92019,151.22241,Australia/Sydney
Kensington,Australia,-37.79188,144.93114,Australia/Melbourne
Kennington,Australia,-36.77128,144.30298,Australia/Melbourne
Kempsey,Australia,-31.07898,152.83093,Australia/Sydney
Kelso,Australia,-33.41667,149.6,Australia/Sydney
Keilor,Australia,-37.71667,144.83333,Australia/Melbourne
Katoomba,Australia,-33.71977,150.30739,Australia/Sydney
Kangaroo Flat,Australia,-36.8,144.25,Australia/Melbourne
Jindabyne,Australia,-36.41745,148.62254,Australia/Sydney
Jimboomba,Australia,-27.83118,153.02737,Australia/Brisbane
Jannali,Australia,-34.01643,151.06065,Australia/Sydney
Irymple,Australia,-34.23537,142.17101,Australia/Melbourne
Inverloch,Australia,-38.62659,145.7226,Australia/Melbourne
Inverell,Australia,-29.77403,151.11166,Australia/Sydney
Ingleburn,Australia,-34,150.86667,Australia/Sydney
Hughesdale,Australia,-37.9,145.08333,Australia/Melbourne
Horsham,Australia,-36.71131,142.19981,Australia/Melbourne
Hornsby,Australia,-33.70244,151.09931,Australia/Sydney
Homebush,Australia,-33.86667,151.08333,Australia/Sydney
Holsworthy,Australia,-33.98333,150.96667,Australia/Sydney
Hobart,Australia,-42.87936,147.32941,Australia/Hobart
Highett,Australia,-37.95,145.05,Australia/Melbourne
Helensburgh,Australia,-34.17836,150.99522,Australia/Sydney
Heidelberg West,Australia,-37.73922,145.04034,Australia/Melbourne
Heidelberg,Australia,-37.75,145.06667,Australia/Melbourne
Heathmont,Australia,-37.83333,145.25,Australia/Melbourne
Heathcote,Australia,-34.0841,151.01305,Australia/Sydney
Healesville,Australia,-37.65395,145.51718,Australia/Melbourne
Haymarket,Australia,-33.87868,151.20526,Australia/Sydney
Hawthorn South,Australia,-37.8329,145.0367,Australia/Melbourne
Hawthorn,Australia,-37.81992,145.0358,Australia/Melbourne
Hastings,Australia,-38.3,145.18333,Australia/Melbourne
Harristown,Australia,-27.58333,151.93333,Australia/Brisbane
Hampton Park,Australia,-38.03333,145.25,Australia/Melbourne
Hampton,Australia,-37.95,145,Australia/Melbourne
Hamilton,Australia,-37.74425,142.02202,Australia/Melbourne
Hallam,Australia,-38.01667,145.26667,Australia/Melbourne
Haberfield,Australia,-33.88296,151.14389,Australia/Sydney
Gympie,Australia,-26.18979,152.66499,Australia/Brisbane
Gunnedah,Australia,-30.98065,150.25838,Australia/Sydney
Grovedale,Australia,-38.2,144.35,Australia/Melbourne
Griffith,Australia,-34.28853,146.05093,Australia/Sydney
Greenvale,Australia,-37.63333,144.86667,Australia/Melbourne
Greensborough,Australia,-37.70462,145.10302,Australia/Melbourne
Green Point,Australia,-33.444,151.3682,Australia/Sydney
Greenbank,Australia,-27.71667,152.98333,Australia/Brisbane
Granville,Australia,-33.8406,151.00748,Australia/Sydney
Grafton,Australia,-29.68104,152.93394,Australia/Sydney
Gracemere,Australia,-23.43792,150.45749,Australia/Brisbane
Goulburn,Australia,-34.75155,149.72086,Australia/Sydney
Gorokan,Australia,-33.25764,151.5097,Australia/Sydney
Gordonvale,Australia,-17.09959,145.78038,Australia/Brisbane
Gordon,Australia,-33.75535,151.15115,Australia/Sydney
Goonellabah,Australia,-28.81667,153.31667,Australia/Sydney
Goondiwindi,Australia,-28.54709,150.30546,Australia/Brisbane
Goodna,Australia,-27.61046,152.89896,Australia/Brisbane
Gold Coast,Australia,-28.00029,153.43088,Australia/Brisbane
Glen Waverley,Australia,-37.87811,145.16476,Australia/Melbourne
Glenroy,Australia,-37.7,144.93333,Australia/Melbourne
Glenorchy,Australia,-42.83343,147.27593,Australia/Hobart
Glen Iris,Australia,-37.86667,145.06667,Australia/Melbourne
Glen Innes,Australia,-29.73485,151.7385,Australia/Sydney
Glenhaven,Australia,-33.7,151,Australia/Sydney
Glenfield,Australia,-33.96667,150.9,Australia/Sydney
Glenferrie,Australia,-37.83333,145.05,Australia/Melbourne
Glebe,Australia,-33.87884,151.18426,Australia/Sydney
Gladstone,Australia,-23.84852,151.25775,Australia/Brisbane
Gisborne,Australia,-37.48858,144.59421,Australia/Melbourne
Geelong West,Australia,-38.13888,144.34842,Australia/Melbourne
Geelong,Australia,-38.14711,144.36069,Australia/Melbourne
Gatton,Australia,-27.55873,152.27618,Australia/Brisbane
Frankston East,Australia,-38.13333,145.13333,Australia/Melbourne
Frankston,Australia,-38.14458,145.12291,Australia/Melbourne
Forster,Australia,-32.18136,152.51715,Australia/Sydney
Forest Hill,Australia,-37.83333,145.18333,Australia/Melbourne
Forbes,Australia,-33.38436,148.0076,Australia/Sydney
Footscray,Australia,-37.8,144.9,Australia/Melbourne
Fitzroy,Australia,-37.79839,144.97833,Australia/Melbourne
Fawkner,Australia,-37.71667,144.96667,Australia/Melbourne
Fairfield,Australia,-33.86667,150.95,Australia/Sydney
Essendon,Australia,-37.74981,144.9109,Australia/Melbourne
Epping,Australia,-37.65,145.03333,Australia/Melbourne
Epping,Australia,-33.77271,151.08184,Australia/Sydney
Engadine,Australia,-34.06564,151.01266,Australia/Sydney
Emu Plains,Australia,-33.75,150.66667,Australia/Sydney
Emerald,Australia,-37.93167,145.44093,Australia/Melbourne
Emerald,Australia,-23.52296,148.15784,Australia/Brisbane
Eltham North,Australia,-37.7,145.15,Australia/Melbourne
Eltham,Australia,-37.73333,145.15,Australia/Melbourne
Elsternwick,Australia,-37.88639,145.0025,Australia/Melbourne
Eight Mile Plains,Australia,-27.58333,153.1,Australia/Brisbane
Edmonton,Australia,-17.01902,145.74443,Australia/Brisbane
Edithvale,Australia,-38.03724,145.10974,Australia/Melbourne
Echuca,Australia,-36.14057,144.75185,Australia/Melbourne
Eastwood,Australia,-33.79176,151.08057,Australia/Sydney
East Maitland,Australia,-32.75,151.58333,Australia/Sydney
East Ballina,Australia,-28.85709,153.58736,Australia/Sydney
Earlwood,Australia,-33.9209,151.12506,Australia/Sydney
Eaglehawk,Australia,-36.71611,144.25049,Australia/Melbourne
Eagleby,Australia,-27.68333,153.21667,Australia/Brisbane
Dural,Australia,-33.68333,151.01667,Australia/Sydney
Dubbo,Australia,-32.24295,148.60484,Australia/Sydney
Drouin,Australia,-38.13658,145.85838,Australia/Melbourne
Dromana,Australia,-38.33375,144.96458,Australia/Melbourne
Doreen,Australia,-37.6,145.15,Australia/Melbourne
Doonside,Australia,-33.76667,150.86667,Australia/Sydney
Donvale,Australia,-37.7891,145.17488,Australia/Melbourne
Doncaster East,Australia,-37.78761,145.14888,Australia/Melbourne
Doncaster,Australia,-37.78828,145.12373,Australia/Melbourne
Dingley Village,Australia,-37.9827,145.1342,Australia/Melbourne
Diamond Creek,Australia,-37.66667,145.15,Australia/Melbourne
Devonport,Australia,-41.17695,146.35152,Australia/Hobart
Derrimut,Australia,-37.79238,144.76994,Australia/Melbourne
Deniliquin,Australia,-35.53245,144.95364,Australia/Sydney
Deer Park,Australia,-37.76722,144.76657,Australia/Melbourne
Deception Bay,Australia,-27.19354,153.02631,Australia/Brisbane
Darlinghurst,Australia,-33.87939,151.21925,Australia/Sydney
Darley,Australia,-37.65807,144.44344,Australia/Melbourne
Dapto,Australia,-34.50386,150.79416,Australia/Sydney
Dandenong,Australia,-37.98333,145.2,Australia/Melbourne
Dalby,Australia,-27.18169,151.26205,Australia/Brisbane
Croydon North,Australia,-37.76741,145.29073,Australia/Melbourne
Croydon,Australia,-37.8,145.28333,Australia/Melbourne
Croydon,Australia,-33.88333,151.11667,Australia/Sydney
Cronulla,Australia,-34.06251,151.14961,Australia/Sydney
Cranbourne,Australia,-38.11342,145.28326,Australia/Melbourne
Craigieburn,Australia,-37.6,144.95,Australia/Melbourne
Cowra,Australia,-33.83554,148.69663,Australia/Sydney
Corrimal,Australia,-34.37864,150.90356,Australia/Sydney
Corowa,Australia,-35.99704,146.38552,Australia/Sydney
Cornubia,Australia,-27.66667,153.21667,Australia/Brisbane
Corio,Australia,-38.08333,144.38333,Australia/Melbourne
Cootamundra,Australia,-34.64095,148.02838,Australia/Sydney
Coorparoo,Australia,-27.49325,153.05826,Australia/Brisbane
Cooranbong,Australia,-33.07622,151.45409,Australia/Sydney
Cooma,Australia,-36.23517,149.12408,Australia/Sydney
Coolum Beach,Australia,-26.5283,153.08809,Australia/Brisbane
Coolangatta,Australia,-28.16944,153.53471,Australia/Brisbane
Coogee,Australia,-33.9205,151.25522,Australia/Sydney
Concord,Australia,-33.84722,151.10381,Australia/Sydney
Collingwood,Australia,-37.80253,144.98872,Australia/Melbourne
Collaroy,Australia,-33.73205,151.30118,Australia/Sydney
Colac,Australia,-38.339,143.58489,Australia/Melbourne
Coffs Harbour,Australia,-30.29626,153.11351,Australia/Sydney
Coburg,Australia,-37.75,144.96667,Australia/Melbourne
Cobram,Australia,-35.92069,145.64066,Australia/Melbourne
Clyde North,Australia,-38.11667,145.33333,Australia/Melbourne
Clyde,Australia,-38.13333,145.33333,Australia/Melbourne
Clifton Springs,Australia,-38.1567,144.5551,Australia/Melbourne
Clifton Hill,Australia,-37.792,144.995,Australia/Melbourne
Cleveland,Australia,-27.52677,153.26516,Australia/Brisbane
Clayton South,Australia,-37.93333,145.11667,Australia/Melbourne
Clayton,Australia,-37.91667,145.11667,Australia/Melbourne
Clarinda,Australia,-37.94066,145.10238,Australia/Melbourne
Claremont,Australia,-42.78333,147.25,Australia/Hobart
Wollongong,Australia,-34.424,150.89345,Australia/Sydney
Chipping Norton,Australia,-33.91801,150.95927,Australia/Sydney
Chippendale,Australia,-33.88673,151.19745,Australia/Sydney
Chinchilla,Australia,-26.73787,150.6297,Australia/Brisbane
Chelsea Heights,Australia,-38.03333,145.13333,Australia/Melbourne
Chelsea,Australia,-38.05,145.11667,Australia/Melbourne
Chatswood,Australia,-33.8,151.18333,Australia/Sydney
Charters Towers,Australia,-20.07671,146.26353,Australia/Brisbane
Charlestown,Australia,-32.96828,151.69318,Australia/Sydney
Cessnock,Australia,-32.83211,151.35623,Australia/Sydney
Caulfield North,Australia,-37.8739,145.02485,Australia/Melbourne
Caulfield,Australia,-37.88251,145.02288,Australia/Melbourne
Castlemaine,Australia,-37.06709,144.21684,Australia/Melbourne
Castle Hill,Australia,-33.73333,151,Australia/Sydney
Casino,Australia,-28.85819,153.04748,Australia/Sydney
Carrum Downs,Australia,-38.09968,145.17248,Australia/Melbourne
Carnegie,Australia,-37.89359,145.05534,Australia/Melbourne
Carlton North,Australia,-37.78818,144.97014,Australia/Melbourne
Carlton,Australia,-37.8,144.96667,Australia/Melbourne
Carlingford,Australia,-33.78269,151.04888,Australia/Sydney
Caringbah,Australia,-34.03534,151.12468,Australia/Sydney
Capalaba,Australia,-27.54333,153.20287,Australia/Brisbane
Cannonvale,Australia,-20.27681,148.69759,Australia/Brisbane
Canberra,Australia,-35.28346,149.12807,Australia/Sydney
Camperdown,Australia,-33.88965,151.17642,Australia/Sydney
Campbelltown,Australia,-34.06667,150.81667,Australia/Sydney
Campbell,Australia,-35.28907,149.15382,Australia/Sydney
Camberwell,Australia,-37.84205,145.0694,Australia/Melbourne
Calliope,Australia,-24.00705,151.20033,Australia/Brisbane
Cairns,Australia,-16.92366,145.76613,Australia/Brisbane
Caboolture,Australia,-27.08465,152.9511,Australia/Brisbane
Byron Bay,Australia,-28.64989,153.61246,Australia/Sydney
Burwood East,Australia,-37.85,145.15,Australia/Melbourne
Burwood,Australia,-33.88333,151.1,Australia/Sydney
Burpengary,Australia,-27.15746,152.95758,Australia/Brisbane
Burnie,Australia,-41.05584,145.90375,Australia/Hobart
Burleigh Heads,Australia,-28.1,153.45,Australia/Brisbane
Bundamba,Australia,-27.60947,152.81133,Australia/Brisbane
Bundaberg,Australia,-24.86621,152.3479,Australia/Brisbane
Bulli,Australia,-34.33834,150.91347,Australia/Sydney
Bulleen,Australia,-37.76667,145.08333,Australia/Melbourne
Buderim,Australia,-26.68443,153.05705,Australia/Brisbane
Brunswick West,Australia,-37.76461,144.94383,Australia/Melbourne
Brunswick East,Australia,-37.77255,144.97241,Australia/Melbourne
Brunswick,Australia,-37.76667,144.96667,Australia/Melbourne
Broken Hill,Australia,-31.9652,141.4512,Australia/Broken_Hill
Broadmeadows,Australia,-37.68015,144.91877,Australia/Melbourne
Broadbeach,Australia,-28.02782,153.43343,Australia/Brisbane
Brisbane,Australia,-27.46794,153.02809,Australia/Brisbane
Brighton,Australia,-37.90561,145.00279,Australia/Melbourne
Brighton,Australia,-27.29582,153.05721,Australia/Brisbane
Box Hill,Australia,-37.81887,145.12545,Australia/Melbourne
Bowral,Australia,-34.4775,150.4204,Australia/Sydney
Bowen,Australia,-20.01367,148.24754,Australia/Brisbane
Botany,Australia,-33.94599,151.19591,Australia/Sydney
Boronia,Australia,-37.86667,145.28333,Australia/Melbourne
Boondall,Australia,-27.35317,153.06092,Australia/Brisbane
Bongaree,Australia,-27.08367,153.15942,Australia/Brisbane
Bomaderry,Australia,-34.84967,150.61093,Australia/Sydney
Bli Bli,Australia,-26.61724,153.03665,Australia/Brisbane
Blaxland,Australia,-33.75,150.6,Australia/Sydney
Blackwater,Australia,-23.58351,148.87912,Australia/Brisbane
Blacktown,Australia,-33.76667,150.91667,Australia/Sydney
Blackmans Bay,Australia,-43.00311,147.31694,Australia/Hobart
Birkdale,Australia,-27.48333,153.21667,Australia/Brisbane
Biloela,Australia,-24.39589,150.51504,Australia/Brisbane
Bexley,Australia,-33.95,151.11667,Australia/Sydney
Berwick,Australia,-38.03333,145.35,Australia/Melbourne
Berkeley Vale,Australia,-33.35,151.43333,Australia/Sydney
Berkeley,Australia,-34.48333,150.85,Australia/Sydney
Bentleigh East,Australia,-37.91928,145.05301,Australia/Melbourne
Bentleigh,Australia,-37.91806,145.03544,Australia/Melbourne
Benowa,Australia,-28.0077,153.38583,Australia/Brisbane
Bendigo,Australia,-36.75818,144.28024,Australia/Melbourne
Benalla,Australia,-36.55113,145.98425,Australia/Melbourne
